{
  "type": "FeatureCollection",
  "features": [
    {"type":"Feature","properties":{"zip_code":"22630","facility_type":"Office Based Opioid Treatment","city":"Front Royal","name":"Virginia Addiction Medicaid, LLC","input_location":"132 Peyton St, Front Royal, VA 22630","latitude":"38.91887298","state":"VA","center_of_population":"false","longitude":"-78.19160603","output_zip":"22630","output_location":"132 Peyton St, Front Royal, Virginia, 22630","address":"132 Peyton St"},"geometry":{"type":"Point","coordinates":[-78.19160603,38.91887298]}},{"type":"Feature","properties":{"zip_code":"24401","facility_type":"Office Based Opioid Treatment","city":"Staunton","name":"Savida Health of Staunton","input_location":"40 Lambert St, Staunton, VA 24401","latitude":"38.16365399312397","state":"VA","center_of_population":"false","longitude":"-79.06883195930571","output_zip":"24401","output_location":"40 Lambert St, Staunton, Virginia, 24401","address":"40 Lambert St"},"geometry":{"type":"Point","coordinates":[-79.06883195930571,38.16365399312397]}},{"type":"Feature","properties":{"zip_code":"23504","facility_type":"Office Based Opioid Treatment","city":"Norfolk","name":"GHR Center for Opioid Addiction Treatment & Recovery","input_location":"850 Tidewater Dr., Suite A, Norfolk, VA 23504","latitude":"36.85292102","state":"VA","center_of_population":"false","longitude":"-76.27435104","output_zip":"23504","output_location":"850 Tidewater Dr, #A, Norfolk, Virginia, 23504","address":"850 Tidewater Dr., Suite A"},"geometry":{"type":"Point","coordinates":[-76.27435104,36.85292102]}},{"type":"Feature","properties":{"zip_code":"24450","facility_type":"Office Based Opioid Treatment","city":"Lexington","name":"Rockbridge Area Health Center FQHC","input_location":"25 Northridge Ln, Lexington, VA 24450","latitude":"37.80369601","state":"VA","center_of_population":"false","longitude":"-79.40503102","output_zip":"24450","output_location":"25 Northridge Ln, Lexington, Virginia, 24450","address":"25 Northridge Ln"},"geometry":{"type":"Point","coordinates":[-79.40503102,37.80369601]}},{"type":"Feature","properties":{"zip_code":"23220","facility_type":"Office Based Opioid Treatment","city":"Richmond","name":"The Daily Planet FQHC","input_location":"517 W. Grace St, Richmond, VA 23220","latitude":"37.54748801120905","state":"VA","center_of_population":"false","longitude":"-77.44786098480591","output_zip":"23220","output_location":"517 W Grace St, Richmond, Virginia, 23220","address":"517 W. Grace St"},"geometry":{"type":"Point","coordinates":[-77.44786098480591,37.54748801120905]}},{"type":"Feature","properties":{"zip_code":"22911","facility_type":"Office Based Opioid Treatment","city":"Charlottesville","name":"Spero Health of Virginia, LLC","input_location":"125 Riverbend Drive, Charlottesville, VA 22911","latitude":"38.032933016323","state":"VA","center_of_population":"false","longitude":"-78.4546269655482","output_zip":"22911","output_location":"125 Riverbend Dr, Charlottesville, Virginia, 22911","address":"125 Riverbend Drive"},"geometry":{"type":"Point","coordinates":[-78.4546269655482,38.032933016323]}},{"type":"Feature","properties":{"zip_code":"24210","facility_type":"Office Based Opioid Treatment","city":"Abingdon","name":"The Doctors Office, LLC","input_location":"609 East Main St, Abingdon, VA 24210","latitude":"36.71720601931084","state":"VA","center_of_population":"false","longitude":"-81.95612200626923","output_zip":"24210","output_location":"609 E Main St, Abingdon, Virginia, 24210","address":"609 East Main St"},"geometry":{"type":"Point","coordinates":[-81.95612200626923,36.71720601931084]}},{"type":"Feature","properties":{"zip_code":"24134","facility_type":"Office Based Opioid Treatment","city":"Pearisburg","name":"NRV CSB","input_location":"705 Wenonah Ave, Pearisburg, VA 24134","latitude":"37.32743597930643","state":"VA","center_of_population":"false","longitude":"-80.73178595897359","output_zip":"24134","output_location":"705 Wenonah Ave, Pearisburg, Virginia, 24134","address":"705 Wenonah Ave"},"geometry":{"type":"Point","coordinates":[-80.73178595897359,37.32743597930643]}},{"type":"Feature","properties":{"zip_code":"24263","facility_type":"Office Based Opioid Treatment","city":"Jonesville","name":"Frontier Health","input_location":"34084 Wilderness Rd, Jonesville, VA 24263","latitude":"36.68706101","state":"VA","center_of_population":"false","longitude":"-83.10397696","output_zip":"24263","output_location":"34084 Wilderness Rd, Jonesville, Virginia, 24263","address":"34084 Wilderness Rd"},"geometry":{"type":"Point","coordinates":[-83.10397696,36.68706101]}},{"type":"Feature","properties":{"zip_code":"23112","facility_type":"Office Based Opioid Treatment","city":"Midlothian","name":"Right Path Treatment Centers","input_location":"5001 West Village Green Drive. Suite 205, Midlothian, VA 23112","latitude":"37.41982600997194","state":"VA","center_of_population":"false","longitude":"-77.63973297441366","output_zip":"23112","output_location":"5001 W Village Green Dr, Ste 205, Midlothian, Virginia, 23112","address":"5001 West Village Green Drive. Suite 205"},"geometry":{"type":"Point","coordinates":[-77.63973297441366,37.41982600997194]}},{"type":"Feature","properties":{"zip_code":"24256","facility_type":"Office Based Opioid Treatment","city":"Haysi","name":"Hopkins Medical Association","input_location":"24743 Dickenson Highway, Haysi, VA 24256","latitude":"37.21244109","state":"VA","center_of_population":"false","longitude":"-82.28064243","output_zip":"24256","output_location":"24743 Dickenson Hwy, Haysi, Virginia, 24256","address":"24743 Dickenson Highway"},"geometry":{"type":"Point","coordinates":[-82.28064243,37.21244109]}},{"type":"Feature","properties":{"zip_code":"24266","facility_type":"Office Based Opioid Treatment","city":"Lebanon","name":"Southwest Regional Counseling Services","input_location":"1114 East Main St. Suite 4, Lebanon, VA 24266","latitude":"36.902728","state":"VA","center_of_population":"false","longitude":"-82.05969903","output_zip":"24266","output_location":"1114 E Main St, Lebanon, Virginia, 24266","address":"1114 East Main St. Suite 4"},"geometry":{"type":"Point","coordinates":[-82.05969903,36.902728]}},{"type":"Feature","properties":{"zip_code":"37615","facility_type":"Office Based Opioid Treatment","city":"Johnson City","name":"Emmaus Medical and Counseling, PLLC","input_location":"1730 Old Gray Station Road, Johnson City, TN 37615","latitude":"36.38552187307995","state":"TN","center_of_population":"false","longitude":"-82.41360452138521","output_zip":"37615","output_location":"1730 Old Gray Station Rd, Johnson City, Tennessee, 37615","address":"1730 Old Gray Station Road"},"geometry":{"type":"Point","coordinates":[-82.41360452138521,36.38552187307995]}},{"type":"Feature","properties":{"zip_code":"23219","facility_type":"Office Based Opioid Treatment","city":"Richmond","name":"Richmond Behavioral Health Authority CSB","input_location":"107 N. 5th St, Richmond, VA 23219","latitude":"37.54129399","state":"VA","center_of_population":"false","longitude":"-77.43895374","output_zip":"23219","output_location":"107 N 5th St, Richmond, Virginia, 23219","address":"107 N. 5th St"},"geometry":{"type":"Point","coordinates":[-77.43895374,37.54129399]}},{"type":"Feature","properties":{"zip_code":"22902","facility_type":"Office Based Opioid Treatment","city":"Charlottesville","name":"Center for Wellness and Change","input_location":"1007 East High St, Charlottesville, VA 22902","latitude":"38.03198498","state":"VA","center_of_population":"false","longitude":"-78.47032401","output_zip":"22902","output_location":"1007 E High St, Charlottesville, Virginia, 22902","address":"1007 East High St"},"geometry":{"type":"Point","coordinates":[-78.47032401,38.03198498]}},{"type":"Feature","properties":{"zip_code":"24504","facility_type":"Office Based Opioid Treatment","city":"Lynchburg","name":"Horizon Behavioral Health CSB","input_location":"620 Court Street, Lynchburg, VA 24504","latitude":"37.415754","state":"VA","center_of_population":"false","longitude":"-79.14549704","output_zip":"24504","output_location":"620 Court St, Lynchburg, Virginia, 24504","address":"620 Court Street"},"geometry":{"type":"Point","coordinates":[-79.14549704,37.415754]}},{"type":"Feature","properties":{"zip_code":"24018","facility_type":"Office Based Opioid Treatment","city":"Roanoke","name":"Anderson and Associates","input_location":"4212 Cypress Park Dr, Roanoke, VA 24018","latitude":"37.226444984426","state":"VA","center_of_population":"false","longitude":"-79.97900203800714","output_zip":"24018","output_location":"4212 Cypress Park Dr, Roanoke, Virginia, 24018","address":"4212 Cypress Park Dr"},"geometry":{"type":"Point","coordinates":[-79.97900203800714,37.226444984426]}},{"type":"Feature","properties":{"zip_code":"23462","facility_type":"Office Based Opioid Treatment","city":"Virginia Beach","name":"Inspiration Health Addiction Treatment Center, LLC","input_location":"1729 Wildwood Dr., Suite 103 , Virginia Beach, VA 23462","latitude":"36.86124399623891","state":"VA","center_of_population":"false","longitude":"-76.02607495897732","output_zip":"23454","output_location":"1729 Wildwood Dr, Ste 103, Virginia Beach, Virginia, 23454","address":"1729 Wildwood Dr., Suite 103"},"geometry":{"type":"Point","coordinates":[-76.02607495897732,36.86124399623891]}},{"type":"Feature","properties":{"zip_code":"24016","facility_type":"Office Based Opioid Treatment","city":"Roanoke","name":"Roanoke Resource, LLC","input_location":"402 Campbell Avenue, Roanoke, VA 24016","latitude":"37.27099199186591","state":"VA","center_of_population":"false","longitude":"-79.94892399755722","output_zip":"24016","output_location":"402 Campbell Ave SW, Roanoke, Virginia, 24016","address":"402 Campbell Avenue"},"geometry":{"type":"Point","coordinates":[-79.94892399755722,37.27099199186591]}},{"type":"Feature","properties":{"zip_code":"23693","facility_type":"Office Based Opioid Treatment","city":"Yorktown","name":"Colonial Behavioral Health CSB","input_location":"3804 George Washington Memorial Highway, Yorktown, VA 23693","latitude":"37.13825898","state":"VA","center_of_population":"false","longitude":"-76.45565102","output_zip":"23692","output_location":"3804 George Washington Mem Hwy, Yorktown, Virginia, 23692","address":"3804 George Washington Memorial Highway"},"geometry":{"type":"Point","coordinates":[-76.45565102,37.13825898]}},{"type":"Feature","properties":{"zip_code":"20147","facility_type":"Office Based Opioid Treatment","city":"Ashburn","name":"Premier Psychiaty Center","input_location":"44355 Premier Plaza, Suite 120, Ashburn, VA 20147","latitude":"39.061379","state":"VA","center_of_population":"false","longitude":"-77.46580496","output_zip":"20147","output_location":"44355 Premier Plz, Ste 120, Ashburn, Virginia, 20147","address":"44355 Premier Plaza, Suite 120"},"geometry":{"type":"Point","coordinates":[-77.46580496,39.061379]}},{"type":"Feature","properties":{"zip_code":"23462","facility_type":"Office Based Opioid Treatment","city":"Virginia Beach","name":"Tidewater Psych Services","input_location":"260 Grayson Rd, Virginia Beach, VA 23462","latitude":"36.83235899","state":"VA","center_of_population":"false","longitude":"-76.15590603","output_zip":"23462","output_location":"260 Grayson Rd, Virginia Beach, Virginia, 23462","address":"260 Grayson Rd"},"geometry":{"type":"Point","coordinates":[-76.15590603,36.83235899]}},{"type":"Feature","properties":{"zip_code":"24401","facility_type":"Office Based Opioid Treatment","city":"Staunton","name":"Spero Health of Virginia, LLC","input_location":"2303 N. Agusta Street, Staunton, VA 24401","latitude":"38.16748401996097","state":"VA","center_of_population":"false","longitude":"-79.05523198612744","output_zip":"24401","output_location":"2303 N Augusta St, Staunton, Virginia, 24401","address":"2303 N. Agusta Street"},"geometry":{"type":"Point","coordinates":[-79.05523198612744,38.16748401996097]}},{"type":"Feature","properties":{"zip_code":"23060","facility_type":"Office Based Opioid Treatment","city":"Glen Allen","name":"Henrico Area MH and Developmental Services","input_location":"10299 Woodman Rd, Glen Allen, VA 23060","latitude":"37.65386601335084","state":"VA","center_of_population":"false","longitude":"-77.49354897881558","output_zip":"23060","output_location":"10299 Woodman Rd, Glen Allen, Virginia, 23060","address":"10299 Woodman Rd"},"geometry":{"type":"Point","coordinates":[-77.49354897881558,37.65386601335084]}},{"type":"Feature","properties":{"zip_code":"20110","facility_type":"Office Based Opioid Treatment","city":"Manassas","name":"Manassas Addiction Center, LLC","input_location":"9001 Digges Road, Manassas, VA 20110","latitude":"38.76499201113592","state":"VA","center_of_population":"false","longitude":"-77.48680498333965","output_zip":"20110","output_location":"9001 Digges Rd, Manassas, Virginia, 20110","address":"9001 Digges Road"},"geometry":{"type":"Point","coordinates":[-77.48680498333965,38.76499201113592]}},{"type":"Feature","properties":{"zip_code":"37601","facility_type":"Office Based Opioid Treatment","city":"Johnson City","name":"Catalyst Health Solutions","input_location":"926 West Oakland Ave Suite 206, Johnson City, TN 37601","latitude":"36.35146645193522","state":"TN","center_of_population":"false","longitude":"-82.40166558995921","output_zip":"37604","output_location":"926 W Oakland Av, #206, Johnson City, Tennessee, 37604","address":"926 West Oakland Ave Suite 206"},"geometry":{"type":"Point","coordinates":[-82.40166558995921,36.35146645193522]}},{"type":"Feature","properties":{"zip_code":"23462","facility_type":"Office Based Opioid Treatment","city":"Virginia Beach","name":"Inspiration Health Addiction Treatment Center, LLC","input_location":"729 Wildwood Dr., Suite 103, Virginia Beach, VA 23462","latitude":"36.86149042","state":"VA","center_of_population":"false","longitude":"-76.0265187","output_zip":"23454","output_location":"Wildwood Dr, Virginia Beach, Virginia, 23454","address":"729 Wildwood Dr., Suite 103"},"geometry":{"type":"Point","coordinates":[-76.0265187,36.86149042]}},{"type":"Feature","properties":{"zip_code":"24641","facility_type":"Office Based Opioid Treatment","city":"Richlands","name":"Hopkins Medical Association","input_location":"3150 Clinch Street, Richlands, VA 24641","latitude":"37.09401599","state":"VA","center_of_population":"false","longitude":"-81.82577604","output_zip":"24641","output_location":"3150 Clinch St, Richlands, Virginia, 24641","address":"3150 Clinch Street"},"geometry":{"type":"Point","coordinates":[-81.82577604,37.09401599]}},{"type":"Feature","properties":{"zip_code":"23221","facility_type":"Office Based Opioid Treatment","city":"Richmond","name":"AppleGate Recovery Virginia","input_location":"204 N. Hamilton St., Suite B, Richmond, VA 23221","latitude":"37.56008002","state":"VA","center_of_population":"false","longitude":"-77.49058899","output_zip":"23221","output_location":"204 N Hamilton St, Ste B, Richmond, Virginia, 23221","address":"204 N. Hamilton St., Suite B"},"geometry":{"type":"Point","coordinates":[-77.49058899,37.56008002]}},{"type":"Feature","properties":{"zip_code":"37601","facility_type":"Office Based Opioid Treatment","city":"Johnson City","name":"Athos Medical PLLC","input_location":"2408 Susannah St., Suite 4, Johnson City, TN 37601","latitude":"36.35057981","state":"TN","center_of_population":"false","longitude":"-82.37381755","output_zip":"37601","output_location":"2408 Susannah St, #4, Johnson City, Tennessee, 37601","address":"2408 Susannah St., Suite 4"},"geometry":{"type":"Point","coordinates":[-82.37381755,36.35057981]}},{"type":"Feature","properties":{"zip_code":"22601","facility_type":"Office Based Opioid Treatment","city":"Winchester","name":"Virginia Addiction Medicaid, LLC","input_location":"2281 Valley Ave, Winchester, VA 22601","latitude":"39.16126199","state":"VA","center_of_population":"false","longitude":"-78.18599996","output_zip":"22601","output_location":"2281 Valley Ave, Winchester, Virginia, 22601","address":"2281 Valley Ave"},"geometry":{"type":"Point","coordinates":[-78.18599996,39.16126199]}},{"type":"Feature","properties":{"zip_code":"23504","facility_type":"Office Based Opioid Treatment","city":"Norfolk","name":"GHR Center for Opioid Addiction Treatment & Recovery","input_location":"850 Tidewater Dr., Suite A, Norfolk, VA 23504","latitude":"36.8529210178428","state":"VA","center_of_population":"false","longitude":"-76.27435103816649","output_zip":"23504","output_location":"850 Tidewater Dr, #A, Norfolk, Virginia, 23504","address":"850 Tidewater Dr., Suite A"},"geometry":{"type":"Point","coordinates":[-76.27435103816649,36.8529210178428]}},{"type":"Feature","properties":{"zip_code":"24210","facility_type":"Office Based Opioid Treatment","city":"Abingdon","name":"The Doctors Office, LLC","input_location":"609 East Main St, Abingdon, VA 24210","latitude":"36.71720602","state":"VA","center_of_population":"false","longitude":"-81.95612201","output_zip":"24210","output_location":"609 E Main St, Abingdon, Virginia, 24210","address":"609 East Main St"},"geometry":{"type":"Point","coordinates":[-81.95612201,36.71720602]}},{"type":"Feature","properties":{"zip_code":"24016","facility_type":"Office Based Opioid Treatment","city":"Roanoke","name":"EHS Support Services LLC, Embrace Recovery","input_location":"1122 2nd St SW, Roanoke, VA 24016","latitude":"37.26259102","state":"VA","center_of_population":"false","longitude":"-79.94350702","output_zip":"24016","output_location":"1122 2nd St SW, Roanoke, Virginia, 24016","address":"1122 2nd St SW"},"geometry":{"type":"Point","coordinates":[-79.94350702,37.26259102]}},{"type":"Feature","properties":{"zip_code":"23693","facility_type":"Office Based Opioid Treatment","city":"Yorktown","name":"Colonial Behavioral Health CSB","input_location":"3804 George Washington Memorial Highway, Yorktown, VA 23693","latitude":"37.13825898111716","state":"VA","center_of_population":"false","longitude":"-76.45565101711809","output_zip":"23692","output_location":"3804 George Washington Mem Hwy, Yorktown, Virginia, 23692","address":"3804 George Washington Memorial Highway"},"geometry":{"type":"Point","coordinates":[-76.45565101711809,37.13825898111716]}},{"type":"Feature","properties":{"zip_code":"22407","facility_type":"Office Based Opioid Treatment","city":"Fredericksburg","name":"Starting Point of Virginia, Fredericksburg","input_location":"4024 Plank Rd, Fredericksburg, VA 22407","latitude":"38.28982699","state":"VA","center_of_population":"false","longitude":"-77.52819097","output_zip":"22407","output_location":"4024 Plank Rd, Fredericksburg, Virginia, 22407","address":"4024 Plank Rd"},"geometry":{"type":"Point","coordinates":[-77.52819097,38.28982699]}},{"type":"Feature","properties":{"zip_code":"23221","facility_type":"Office Based Opioid Treatment","city":"Richmond","name":"AppleGate Recovery Virginia","input_location":"204 N. Hamilton St., Suite B  , Richmond, VA 23221","latitude":"37.56008001862098","state":"VA","center_of_population":"false","longitude":"-77.4905889935282","output_zip":"23221","output_location":"204 N Hamilton St, Ste B, Richmond, Virginia, 23221","address":"204 N. Hamilton St., Suite B"},"geometry":{"type":"Point","coordinates":[-77.4905889935282,37.56008001862098]}},{"type":"Feature","properties":{"zip_code":"23235","facility_type":"Office Based Opioid Treatment","city":"Richmond","name":"Leesburg Treatment Services","input_location":"681 Hioaks Rd, Richmond, VA 23235","latitude":"37.51201102","state":"VA","center_of_population":"false","longitude":"-77.52446102","output_zip":"23225","output_location":"681 Hioaks Rd, Richmond, Virginia, 23225","address":"681 Hioaks Rd"},"geometry":{"type":"Point","coordinates":[-77.52446102,37.51201102]}},{"type":"Feature","properties":{"zip_code":"23434","facility_type":"Office Based Opioid Treatment","city":"Suffolk","name":"Suffolk Psychotherapy, Inc","input_location":"425 W. Washington St., Suite 4, Suffolk, VA 23434","latitude":"36.72923300262971","state":"VA","center_of_population":"false","longitude":"-76.58818399374755","output_zip":"23434","output_location":"425 W Washington St, Ste 4, Suffolk, Virginia, 23434","address":"425 W. Washington St., Suite 4"},"geometry":{"type":"Point","coordinates":[-76.58818399374755,36.72923300262971]}},{"type":"Feature","properties":{"zip_code":"23226","facility_type":"Office Based Opioid Treatment","city":"Henrico","name":"Henrico Area MH and Developmental Services","input_location":"2010 Bremo Road, Suite 122, Henrico, VA 23226","latitude":"37.59110198709699","state":"VA","center_of_population":"false","longitude":"-77.50762697193196","output_zip":"23226","output_location":"2010 Bremo Rd, Ste 122, Richmond, Virginia, 23226","address":"2010 Bremo Road, Suite 122"},"geometry":{"type":"Point","coordinates":[-77.50762697193196,37.59110198709699]}},{"type":"Feature","properties":{"zip_code":"20121","facility_type":"Office Based Opioid Treatment","city":"Centreville","name":"Virginia Addiction Medicaid, LLC","input_location":"6138 Redwood Sq Center, Suite 204, Centreville, VA 20121","latitude":"38.82989300360433","state":"VA","center_of_population":"false","longitude":"-77.43328896231637","output_zip":"20121","output_location":"6138 Redwood Square Ctr, Ste 204, Centreville, Virginia, 20121","address":"6138 Redwood Sq Center, Suite 204"},"geometry":{"type":"Point","coordinates":[-77.43328896231637,38.82989300360433]}},{"type":"Feature","properties":{"zip_code":"24333","facility_type":"Office Based Opioid Treatment","city":"Galax","name":"Mount Rogers CSB","input_location":"1102 E Staurt Drive, Galax, VA 24333","latitude":"36.68802400431038","state":"VA","center_of_population":"false","longitude":"-80.8861620076402","output_zip":"24333","output_location":"1102 E Stuart Dr, Galax, Virginia, 24333","address":"1102 E Staurt Drive"},"geometry":{"type":"Point","coordinates":[-80.8861620076402,36.68802400431038]}},{"type":"Feature","properties":{"zip_code":"24084","facility_type":"Office Based Opioid Treatment","city":"Dublin","name":"Spero Health of Virginia, LLC","input_location":"30 Town Center Drive, Dublin, VA 24084","latitude":"37.09261997933156","state":"VA","center_of_population":"false","longitude":"-80.68698099846345","output_zip":"24084","output_location":"30 Town Center Dr, Dublin, Virginia, 24084","address":"30 Town Center Drive"},"geometry":{"type":"Point","coordinates":[-80.68698099846345,37.09261997933156]}},{"type":"Feature","properties":{"zip_code":"23606","facility_type":"Office Based Opioid Treatment","city":"Newport News","name":"Dominion Patient Care Services","input_location":"12388 Warwick Blvd., Suite 302, Newport News, VA 23606","latitude":"37.06748499864129","state":"VA","center_of_population":"false","longitude":"-76.49168800399252","output_zip":"23606","output_location":"12388 Warwick Blvd, Ste 302, Newport News, Virginia, 23606","address":"12388 Warwick Blvd., Suite 302"},"geometry":{"type":"Point","coordinates":[-76.49168800399252,37.06748499864129]}},{"type":"Feature","properties":{"zip_code":"24016","facility_type":"Office Based Opioid Treatment","city":"Roanoke","name":"Carilion Medical Center","input_location":"3 Riverside Cirle, 2 North, Roanoke, VA 24016","latitude":"37.25576199","state":"VA","center_of_population":"false","longitude":"-79.94283999","output_zip":"24016","output_location":"3 Riverside Cir, Roanoke, Virginia, 24016","address":"3 Riverside Cirle, 2 North"},"geometry":{"type":"Point","coordinates":[-79.94283999,37.25576199]}},{"type":"Feature","properties":{"zip_code":"23224","facility_type":"Office Based Opioid Treatment","city":"Richmond","name":"CleanSlate Medical Group","input_location":"101 Cowardin Avenue, Richmond, VA 23224","latitude":"37.51964798","state":"VA","center_of_population":"false","longitude":"-77.44896103","output_zip":"23224","output_location":"101 Cowardin Ave, Richmond, Virginia, 23224","address":"101 Cowardin Avenue"},"geometry":{"type":"Point","coordinates":[-77.44896103,37.51964798]}},{"type":"Feature","properties":{"zip_code":"23219","facility_type":"Office Based Opioid Treatment","city":"Richmond","name":"Richmond Behavioral Health Authority CSB","input_location":"107 N. 5th St, Richmond, VA 23219","latitude":"37.54129398632388","state":"VA","center_of_population":"false","longitude":"-77.43895374401801","output_zip":"23219","output_location":"107 N 5th St, Richmond, Virginia, 23219","address":"107 N. 5th St"},"geometry":{"type":"Point","coordinates":[-77.43895374401801,37.54129398632388]}},{"type":"Feature","properties":{"zip_code":"24266","facility_type":"Office Based Opioid Treatment","city":"Lebanon","name":"Southwest Regional Counseling Services","input_location":"1114 East Main St. Suite 4, Lebanon, VA 24266","latitude":"36.90272800480143","state":"VA","center_of_population":"false","longitude":"-82.05969902782687","output_zip":"24266","output_location":"1114 E Main St, Lebanon, Virginia, 24266","address":"1114 East Main St. Suite 4"},"geometry":{"type":"Point","coordinates":[-82.05969902782687,36.90272800480143]}},{"type":"Feature","properties":{"zip_code":"20191","facility_type":"Office Based Opioid Treatment","city":"Reston","name":"Bright Heart Health Inc","input_location":"12020 Sunrise Valley Dr, Reston, VA 20191","latitude":"38.94884","state":"VA","center_of_population":"false","longitude":"-77.363158","output_zip":"20191","output_location":"12020 Sunrise Valley Dr, Reston, Virginia, 20191","address":"12020 Sunrise Valley Dr"},"geometry":{"type":"Point","coordinates":[-77.363158,38.94884]}},{"type":"Feature","properties":{"zip_code":"24293","facility_type":"Office Based Opioid Treatment","city":"Wise","name":"New Hope Addiction Recovery, Inc","input_location":"106 Spring Avenue, NE, Wise, VA 24293","latitude":"36.97783401","state":"VA","center_of_population":"false","longitude":"-82.57942204","output_zip":"24293","output_location":"106 Spring Ave NE, Wise, Virginia, 24293","address":"106 Spring Avenue, NE"},"geometry":{"type":"Point","coordinates":[-82.57942204,36.97783401]}},{"type":"Feature","properties":{"zip_code":"22015","facility_type":"Office Based Opioid Treatment","city":"Burke","name":"Kaiser Foundation Health Plan","input_location":"5999 Burke Commons Rd, Burke, VA 22015","latitude":"38.78858502","state":"VA","center_of_population":"false","longitude":"-77.29778301","output_zip":"22015","output_location":"5999 Burke Commons Rd, Burke, Virginia, 22015","address":"5999 Burke Commons Rd"},"geometry":{"type":"Point","coordinates":[-77.29778301,38.78858502]}},{"type":"Feature","properties":{"zip_code":"24202","facility_type":"Office Based Opioid Treatment","city":"Bristol","name":"Catalyst Health Solutions","input_location":"2426 Lee Hwy, Suite 104 , Bristol, VA 24202","latitude":"36.62941098987564","state":"VA","center_of_population":"false","longitude":"-82.1498990348307","output_zip":"24202","output_location":"2426 Lee Hwy, Ste 104, Bristol, Virginia, 24202","address":"2426 Lee Hwy, Suite 104"},"geometry":{"type":"Point","coordinates":[-82.1498990348307,36.62941098987564]}},{"type":"Feature","properties":{"zip_code":"22407","facility_type":"Office Based Opioid Treatment","city":"Fredericksburg","name":"Starting Point of Virginia, Fredericksburg","input_location":"4024 Plank Rd, Fredericksburg, VA 22407","latitude":"38.28982699117151","state":"VA","center_of_population":"false","longitude":"-77.52819096554452","output_zip":"22407","output_location":"4024 Plank Rd, Fredericksburg, Virginia, 22407","address":"4024 Plank Rd"},"geometry":{"type":"Point","coordinates":[-77.52819096554452,38.28982699117151]}},{"type":"Feature","properties":{"zip_code":"24210","facility_type":"Office Based Opioid Treatment","city":"Abingdon","name":"Starting Point of Virginia","input_location":"301 Falls Drive, NW, Suite 353, Abingdon, VA 24210","latitude":"36.71253701","state":"VA","center_of_population":"false","longitude":"-81.99524798","output_zip":"24210","output_location":"301 Falls Dr NW, Abingdon, Virginia, 24210","address":"301 Falls Drive, NW, Suite 353"},"geometry":{"type":"Point","coordinates":[-81.99524798,36.71253701]}},{"type":"Feature","properties":{"zip_code":"23320","facility_type":"Office Based Opioid Treatment","city":"Chesapeake","name":"Right Path Treatment Centers","input_location":"516 Innovation Dr. Suite 102, Chesapeake, VA 23320","latitude":"36.73564","state":"VA","center_of_population":"false","longitude":"-76.22000898","output_zip":"23320","output_location":"516 Innovation Dr, Ste 102, Chesapeake, Virginia, 23320","address":"516 Innovation Dr. Suite 102"},"geometry":{"type":"Point","coordinates":[-76.22000898,36.73564]}},{"type":"Feature","properties":{"zip_code":"23513","facility_type":"Office Based Opioid Treatment","city":"Norfolk","name":"Life\u0092s Journey LLC","input_location":"2551 Eltham Ave., Suite F, Norfolk, VA 23513","latitude":"36.87731998","state":"VA","center_of_population":"false","longitude":"-76.22217797","output_zip":"23513","output_location":"2551 Eltham Ave, Ste F, Norfolk, Virginia, 23513","address":"2551 Eltham Ave., Suite F"},"geometry":{"type":"Point","coordinates":[-76.22217797,36.87731998]}},{"type":"Feature","properties":{"zip_code":"22031","facility_type":"Office Based Opioid Treatment","city":"Fairfax","name":"INOVA Comprehensive Addiction Treatment","input_location":"8221 Willow Oaks Corporate Dr, Suite 4-425, Fairfax, VA 22031","latitude":"38.86367601","state":"VA","center_of_population":"false","longitude":"-77.23383596","output_zip":"22031","output_location":"8221 Willow Oaks Corporate Dr, Fairfax, Virginia, 22031","address":"8221 Willow Oaks Corporate Dr, Suite 4-425"},"geometry":{"type":"Point","coordinates":[-77.23383596,38.86367601]}},{"type":"Feature","properties":{"zip_code":"22701","facility_type":"Office Based Opioid Treatment","city":"Culpepper","name":"SaVida Health of Culpepper","input_location":"767 Madison Rd, Suite 107, Culpepper, VA 22701","latitude":"38.45638098123314","state":"VA","center_of_population":"false","longitude":"-78.01766502578634","output_zip":"22701","output_location":"767 Madison Rd, Ste 107, Culpeper, Virginia, 22701","address":"767 Madison Rd, Suite 107"},"geometry":{"type":"Point","coordinates":[-78.01766502578634,38.45638098123314]}},{"type":"Feature","properties":{"zip_code":"22973","facility_type":"Office Based Opioid Treatment","city":"Stanardsville","name":"Region Ten CSB","input_location":"9963 Spotswood Trail, Stanardsville, VA 22973","latitude":"38.28629100149791","state":"VA","center_of_population":"false","longitude":"-78.41928299442831","output_zip":"22973","output_location":"9963 Spotswood Trl, Stanardsville, Virginia, 22973","address":"9963 Spotswood Trail"},"geometry":{"type":"Point","coordinates":[-78.41928299442831,38.28629100149791]}},{"type":"Feature","properties":{"zip_code":"22124","facility_type":"Office Based Opioid Treatment","city":"Abingdon","name":"ReVIDA Recovery Centers","input_location":"300 Valley St., NE, Abingdon, VA 22124","latitude":"36.71412701099838","state":"VA","center_of_population":"false","longitude":"-81.96731695996938","output_zip":"24210","output_location":"300 Valley St NE, Abingdon, Virginia, 24210","address":"300 Valley St., NE"},"geometry":{"type":"Point","coordinates":[-81.96731695996938,36.71412701099838]}},{"type":"Feature","properties":{"zip_code":"22903","facility_type":"Office Based Opioid Treatment","city":"Charlottesville","name":"UVA Clinic","input_location":"1300 Jefferson Park Avenue, Charlottesville, VA 22903","latitude":"38.03324101","state":"VA","center_of_population":"false","longitude":"-78.50101703","output_zip":"22903","output_location":"1300 Jefferson Park Ave, Charlottesville, Virginia, 22903","address":"1300 Jefferson Park Avenue"},"geometry":{"type":"Point","coordinates":[-78.50101703,38.03324101]}},{"type":"Feature","properties":{"zip_code":"24228","facility_type":"Office Based Opioid Treatment","city":"Clintwood","name":"Dickenson County Behavioral Health Services CSB","input_location":"440 Foxtown Rd, Clintwood, VA 24228","latitude":"37.15102001","state":"VA","center_of_population":"false","longitude":"-82.448345","output_zip":"24228","output_location":"440 Fox Town Rd, Clintwood, Virginia, 24228","address":"440 Foxtown Rd"},"geometry":{"type":"Point","coordinates":[-82.448345,37.15102001]}},{"type":"Feature","properties":{"zip_code":"22401","facility_type":"Office Based Opioid Treatment","city":"Fredericksburg","name":"Kaiser Foundation Health Plan","input_location":"1201 Hospital Dr, Fredericksburg, VA 22401","latitude":"38.31013500146108","state":"VA","center_of_population":"false","longitude":"-77.48720203409307","output_zip":"22401","output_location":"1201 Hospital Dr, Fredericksburg, Virginia, 22401","address":"1201 Hospital Dr"},"geometry":{"type":"Point","coordinates":[-77.48720203409307,38.31013500146108]}},{"type":"Feature","properties":{"zip_code":"24501","facility_type":"Office Based Opioid Treatment","city":"Lynchburg","name":"BrightView Health, LLC","input_location":"3704 Old Forest Road, Lynchburg, VA 24501","latitude":"37.40599599546101","state":"VA","center_of_population":"false","longitude":"-79.22051599212946","output_zip":"24501","output_location":"3704 Old Forest Rd, Lynchburg, Virginia, 24501","address":"3704 Old Forest Road"},"geometry":{"type":"Point","coordinates":[-79.22051599212946,37.40599599546101]}},{"type":"Feature","properties":{"zip_code":"23230","facility_type":"Office Based Opioid Treatment","city":"Richmond","name":"Peter Breslin, MD","input_location":"5540 Falmouth Street, Suite 103, Richmond, VA 23230","latitude":"37.60209300909288","state":"VA","center_of_population":"false","longitude":"-77.50775596942182","output_zip":"23230","output_location":"5540 Falmouth St, Ste 103, Richmond, Virginia, 23230","address":"5540 Falmouth Street, Suite 103"},"geometry":{"type":"Point","coordinates":[-77.50775596942182,37.60209300909288]}},{"type":"Feature","properties":{"zip_code":"23421","facility_type":"Office Based Opioid Treatment","city":"Parksley","name":"Eastern Shore CSB","input_location":"19056 Greenbush Rd, Parksley, VA 23421","latitude":"37.78144700349375","state":"VA","center_of_population":"false","longitude":"-75.65586599319049","output_zip":"23421","output_location":"19056 Greenbush Rd, Parksley, Virginia, 23421","address":"19056 Greenbush Rd"},"geometry":{"type":"Point","coordinates":[-75.65586599319049,37.78144700349375]}},{"type":"Feature","properties":{"zip_code":"24614","facility_type":"Office Based Opioid Treatment","city":"Grundy","name":"Cumberland Mountain CSB","input_location":"1014 Stillhouse Hollow Rd, Grundy, VA 24614","latitude":"37.29607299309973","state":"VA","center_of_population":"false","longitude":"-82.05618902205312","output_zip":"24614","output_location":"1014 Stillhouse Hollow Rd, Grundy, Virginia, 24614","address":"1014 Stillhouse Hollow Rd"},"geometry":{"type":"Point","coordinates":[-82.05618902205312,37.29607299309973]}},{"type":"Feature","properties":{"zip_code":"24013","facility_type":"Office Based Opioid Treatment","city":"Roanoke","name":"Carilion Medical Center","input_location":"101 Elm Ave SE, Roanoke, VA 24013","latitude":"37.26601100399439","state":"VA","center_of_population":"false","longitude":"-79.93945202787381","output_zip":"24013","output_location":"101 Elm Ave SE, Roanoke, Virginia, 24013","address":"101 Elm Ave SE"},"geometry":{"type":"Point","coordinates":[-79.93945202787381,37.26601100399439]}},{"type":"Feature","properties":{"zip_code":"24501","facility_type":"Office Based Opioid Treatment","city":"Lynchburg","name":"Addiction Allies, LLC","input_location":"2137 Lakeside Dr., Suite 103, Lynchburg, VA 24501","latitude":"37.39885700279794","state":"VA","center_of_population":"false","longitude":"-79.20736595951364","output_zip":"24501","output_location":"2137 Lakeside Dr, Ste 103, Lynchburg, Virginia, 24501","address":"2137 Lakeside Dr., Suite 103"},"geometry":{"type":"Point","coordinates":[-79.20736595951364,37.39885700279794]}},{"type":"Feature","properties":{"zip_code":"24637","facility_type":"Office Based Opioid Treatment","city":"Pounding Mill","name":"Cumberland Mountain CSB","input_location":"226 Clay Dr, Pounding Mill, VA 24637","latitude":"37.063646","state":"VA","center_of_population":"false","longitude":"-81.73959599","output_zip":"24637","output_location":"226 Clay Dr, Pounding Mill, Virginia, 24637","address":"226 Clay Dr"},"geometry":{"type":"Point","coordinates":[-81.73959599,37.063646]}},{"type":"Feature","properties":{"zip_code":"37601","facility_type":"Office Based Opioid Treatment","city":"Johnson City","name":"Dragonfly Medical and BH Professional Corporation","input_location":"102 N. Broadway St, Johnson City, TN 37601","latitude":"36.33110283","state":"TN","center_of_population":"false","longitude":"-82.33854424","output_zip":"37601","output_location":"102 N Broadway St, Johnson City, Tennessee, 37601","address":"102 N. Broadway St"},"geometry":{"type":"Point","coordinates":[-82.33854424,36.33110283]}},{"type":"Feature","properties":{"zip_code":"22801","facility_type":"Office Based Opioid Treatment","city":"Harrisonburg","name":"Starting Point of Virginia, Harrisonburg","input_location":"322 Neff Avenue, Harrisonburg, VA 22801","latitude":"38.42562400662601","state":"VA","center_of_population":"false","longitude":"-78.85085696300997","output_zip":"22801","output_location":"322 Neff Ave, Harrisonburg, Virginia, 22801","address":"322 Neff Avenue"},"geometry":{"type":"Point","coordinates":[-78.85085696300997,38.42562400662601]}},{"type":"Feature","properties":{"zip_code":"24112","facility_type":"Office Based Opioid Treatment","city":"Martinsville","name":"Piedmont Regional CSB","input_location":"24 Clay St, Martinsville, VA 24112","latitude":"36.69134499816752","state":"VA","center_of_population":"false","longitude":"-79.86737302498304","output_zip":"24112","output_location":"24 Clay St, Martinsville, Virginia, 24112","address":"24 Clay St"},"geometry":{"type":"Point","coordinates":[-79.86737302498304,36.69134499816752]}},{"type":"Feature","properties":{"zip_code":"23219","facility_type":"Office Based Opioid Treatment","city":"Richmond","name":"MCV â€“ Starting Anew Clinic","input_location":"401 N. 11th St, Richmond, VA 23219","latitude":"37.54069598742794","state":"VA","center_of_population":"false","longitude":"-77.43078101306725","output_zip":"23219","output_location":"401 N 11th St, Richmond, Virginia, 23219","address":"401 N. 11th St"},"geometry":{"type":"Point","coordinates":[-77.43078101306725,37.54069598742794]}},{"type":"Feature","properties":{"zip_code":"24210","facility_type":"Office Based Opioid Treatment","city":"Abingdon","name":"Highlands CSB*","input_location":"610 Campus Dr, Abingdon, VA 24210","latitude":"36.71085698","state":"VA","center_of_population":"false","longitude":"-81.99191902","output_zip":"24210","output_location":"610 Campus Dr, Abingdon, Virginia, 24210","address":"610 Campus Dr"},"geometry":{"type":"Point","coordinates":[-81.99191902,36.71085698]}},{"type":"Feature","properties":{"zip_code":"24244","facility_type":"Office Based Opioid Treatment","city":"Duffield","name":"ReVIDA Recovery Centers","input_location":"198 Ross Carter Blvd , Duffield, VA 24244","latitude":"36.71475401926541","state":"VA","center_of_population":"false","longitude":"-82.81350696590427","output_zip":"24244","output_location":"198 Ross Carter Blvd, Duffield, Virginia, 24244","address":"198 Ross Carter Blvd"},"geometry":{"type":"Point","coordinates":[-82.81350696590427,36.71475401926541]}},{"type":"Feature","properties":{"zip_code":"24266","facility_type":"Office Based Opioid Treatment","city":"Lebanon","name":"Cumberland Mountain CSB*","input_location":"216 Gilmer St, Lebanon, VA 24266","latitude":"36.90306198173346","state":"VA","center_of_population":"false","longitude":"-82.07614800989448","output_zip":"24266","output_location":"216 Gilmer St, Lebanon, Virginia, 24266","address":"216 Gilmer St"},"geometry":{"type":"Point","coordinates":[-82.07614800989448,36.90306198173346]}},{"type":"Feature","properties":{"zip_code":"24266","facility_type":"Office Based Opioid Treatment","city":"Lebanon","name":"Cumberland Mountain CSB*","input_location":"78 Rogers Street, Lebanon, VA 24266","latitude":"36.9031198","state":"VA","center_of_population":"false","longitude":"-82.07721249","output_zip":"24266","output_location":"78 Rogers St, Lebanon, Virginia, 24266","address":"78 Rogers Street"},"geometry":{"type":"Point","coordinates":[-82.07721249,36.9031198]}},{"type":"Feature","properties":{"zip_code":"24333","facility_type":"Office Based Opioid Treatment","city":"Galax","name":"Spero Health of Virginia, LLC","input_location":"105 Doctors Park, Galax, VA 24333","latitude":"36.67168298115567","state":"VA","center_of_population":"false","longitude":"-80.92069896912234","output_zip":"24333","output_location":"105 Doctors Park, Galax, Virginia, 24333","address":"105 Doctors Park"},"geometry":{"type":"Point","coordinates":[-80.92069896912234,36.67168298115567]}},{"type":"Feature","properties":{"zip_code":"24279","facility_type":"Office Based Opioid Treatment","city":"Pound","name":"Hopkins Medical Association","input_location":"10521 Indian Creek Road, Pound , VA 24279","latitude":"37.10128498","state":"VA","center_of_population":"false","longitude":"-82.59892002","output_zip":"24279","output_location":"10521 Indian Creek Rd, Pound, Virginia, 24279","address":"10521 Indian Creek Road"},"geometry":{"type":"Point","coordinates":[-82.59892002,37.10128498]}},{"type":"Feature","properties":{"zip_code":"24450","facility_type":"Office Based Opioid Treatment","city":"Lexington","name":"Rockbridge Area Health Center FQHC","input_location":"25 Northridge Ln, Lexington, VA 24450","latitude":"37.80369601110169","state":"VA","center_of_population":"false","longitude":"-79.40503101768206","output_zip":"24450","output_location":"25 Northridge Ln, Lexington, Virginia, 24450","address":"25 Northridge Ln"},"geometry":{"type":"Point","coordinates":[-79.40503101768206,37.80369601110169]}},{"type":"Feature","properties":{"zip_code":"24228","facility_type":"Office Based Opioid Treatment","city":"Clintwood","name":"Dickenson County Behavioral Health Services CSB","input_location":"440 Foxtown Rd, Clintwood, VA 24228","latitude":"37.15102000960663","state":"VA","center_of_population":"false","longitude":"-82.44834499547646","output_zip":"24228","output_location":"440 Fox Town Rd, Clintwood, Virginia, 24228","address":"440 Foxtown Rd"},"geometry":{"type":"Point","coordinates":[-82.44834499547646,37.15102000960663]}},{"type":"Feature","properties":{"zip_code":"24540","facility_type":"Office Based Opioid Treatment","city":"Danville","name":"Spero Health of Virginia, LLC","input_location":"789 Piney Forest Road, Danville, VA 24540","latitude":"36.61430801572945","state":"VA","center_of_population":"false","longitude":"-79.40658200504565","output_zip":"24540","output_location":"789 Piney Forest Rd, Danville, Virginia, 24540","address":"789 Piney Forest Road"},"geometry":{"type":"Point","coordinates":[-79.40658200504565,36.61430801572945]}},{"type":"Feature","properties":{"zip_code":"24014","facility_type":"Office Based Opioid Treatment","city":"Roanoke","name":"Carilion Medical Center","input_location":"2017 S Jefferson St, Roanoke, VA 24014","latitude":"37.25011062589104","state":"VA","center_of_population":"false","longitude":"-79.94429912450585","output_zip":"24014","output_location":"2017 S Jefferson St, Roanoke, Virginia, 24014","address":"2017 S Jefferson St"},"geometry":{"type":"Point","coordinates":[-79.94429912450585,37.25011062589104]}},{"type":"Feature","properties":{"zip_code":"23434","facility_type":"Office Based Opioid Treatment","city":"Suffolk","name":"Western Tidewater CSB","input_location":"1000 Commercial Lane, Suffolk, VA 23434","latitude":"36.77878798766936","state":"VA","center_of_population":"false","longitude":"-76.58064598058381","output_zip":"23434","output_location":"1000 Commercial Ln, Suffolk, Virginia, 23434","address":"1000 Commercial Lane"},"geometry":{"type":"Point","coordinates":[-76.58064598058381,36.77878798766936]}},{"type":"Feature","properties":{"zip_code":"22093","facility_type":"Office Based Opioid Treatment","city":"Louisa","name":"Region Ten CSB Louisa Counseling Center","input_location":"101 Ashley St, Louisa, VA 22093","latitude":"38.02281687968989","state":"VA","center_of_population":"false","longitude":"-78.00248144312171","output_zip":"23093","output_location":"101 Ashley St, Louisa, Virginia, 23093","address":"101 Ashley St"},"geometry":{"type":"Point","coordinates":[-78.00248144312171,38.02281687968989]}},{"type":"Feature","properties":{"zip_code":"24609","facility_type":"Office Based Opioid Treatment","city":"Cedar Bluff","name":"SaVida Health of Claypool Hill","input_location":"4003 Steelsburg Hwy, Cedar Bluff, VA 24609","latitude":"37.05718301099594","state":"VA","center_of_population":"false","longitude":"-81.76486902021098","output_zip":"24609","output_location":"4003 Steelsburg Hwy, Cedar Bluff, Virginia, 24609","address":"4003 Steelsburg Hwy"},"geometry":{"type":"Point","coordinates":[-81.76486902021098,37.05718301099594]}},{"type":"Feature","properties":{"zip_code":"22664","facility_type":"Office Based Opioid Treatment","city":"Woodstock","name":"Northwestern CSB*","input_location":"494 N. Main St., Suite 300, Woodstock, VA 22664","latitude":"38.88742199","state":"VA","center_of_population":"false","longitude":"-78.49898601","output_zip":"22664","output_location":"494 N Main St, Ste 300, Woodstock, Virginia, 22664","address":"494 N. Main St., Suite 300"},"geometry":{"type":"Point","coordinates":[-78.49898601,38.88742199]}},{"type":"Feature","properties":{"zip_code":"23805","facility_type":"Office Based Opioid Treatment","city":"Prince George","name":"Starting Point of Virginia, PC","input_location":"10531 South Crater Road South, Prince George, VA 23805","latitude":"37.16768398749069","state":"VA","center_of_population":"false","longitude":"-77.35701599035274","output_zip":"23805","output_location":"10531 S Crater Rd, Petersburg, Virginia, 23805","address":"10531 South Crater Road South"},"geometry":{"type":"Point","coordinates":[-77.35701599035274,37.16768398749069]}},{"type":"Feature","properties":{"zip_code":"24882","facility_type":"Office Based Opioid Treatment","city":"Wytheville","name":"SaVida Health of Wytheville","input_location":"350 S. 4th St., Suite D , Wytheville, VA 24882","latitude":"36.94692402004587","state":"VA","center_of_population":"false","longitude":"-81.0829379973388","output_zip":"24382","output_location":"350 S 4th St, Ste D, Wytheville, Virginia, 24382","address":"350 S. 4th St., Suite D"},"geometry":{"type":"Point","coordinates":[-81.0829379973388,36.94692402004587]}},{"type":"Feature","properties":{"zip_code":"24012","facility_type":"Office Based Opioid Treatment","city":"Roanoke","name":"Intercept Youth Services","input_location":"5673 Airport Rd, Roanoke, VA 24012","latitude":"37.32382400768056","state":"VA","center_of_population":"false","longitude":"-79.96100097892852","output_zip":"24012","output_location":"5673 Airport Rd, Roanoke, Virginia, 24012","address":"5673 Airport Rd"},"geometry":{"type":"Point","coordinates":[-79.96100097892852,37.32382400768056]}},{"type":"Feature","properties":{"zip_code":"24141","facility_type":"Office Based Opioid Treatment","city":"Radford","name":"New River Valley Community Services CSB","input_location":"401 Main St, Radford, VA 24141","latitude":"37.13382101","state":"VA","center_of_population":"false","longitude":"-80.57768299","output_zip":"24141","output_location":"401 W Main St, Radford, Virginia, 24141","address":"401 Main St"},"geometry":{"type":"Point","coordinates":[-80.57768299,37.13382101]}},{"type":"Feature","properties":{"zip_code":"24382","facility_type":"Office Based Opioid Treatment","city":"Wytheville","name":"VIDA Recovery Centers","input_location":"255 Holston Rd, Wytheville, VA 24382","latitude":"36.96180198","state":"VA","center_of_population":"false","longitude":"-81.097449","output_zip":"24382","output_location":"255 Holston Rd, Wytheville, Virginia, 24382","address":"255 Holston Rd"},"geometry":{"type":"Point","coordinates":[-81.097449,36.96180198]}},{"type":"Feature","properties":{"zip_code":"24501","facility_type":"Office Based Opioid Treatment","city":"Lynchburg","name":"PRIS Plc","input_location":"2600 Memorial Ave., Suite 201B, Lynchburg, VA 24501","latitude":"37.40047299182065","state":"VA","center_of_population":"false","longitude":"-79.16792902125415","output_zip":"24501","output_location":"2600 Memorial Ave, Ste 201B, Lynchburg, Virginia, 24501","address":"2600 Memorial Ave., Suite 201B"},"geometry":{"type":"Point","coordinates":[-79.16792902125415,37.40047299182065]}},{"type":"Feature","properties":{"zip_code":"24382","facility_type":"Office Based Opioid Treatment","city":"Wytheville","name":"Mount Rogers CSB","input_location":"750 West Ridge Road, Wytheville, VA 24382","latitude":"36.95402299","state":"VA","center_of_population":"false","longitude":"-81.09763298","output_zip":"24382","output_location":"750 W Ridge Rd, Wytheville, Virginia, 24382","address":"750 West Ridge Road"},"geometry":{"type":"Point","coordinates":[-81.09763298,36.95402299]}},{"type":"Feature","properties":{"zip_code":"23803","facility_type":"Office Based Opioid Treatment","city":"Petersburg","name":"Central Virginia Health Services FQHC","input_location":"25 S Union Street, Petersburg, VA 23803","latitude":"37.22665079275512","state":"VA","center_of_population":"false","longitude":"-77.40442775957182","output_zip":"23803","output_location":"25 S Union St, Petersburg, Virginia, 23803","address":"25 S Union Street"},"geometry":{"type":"Point","coordinates":[-77.40442775957182,37.22665079275512]}},{"type":"Feature","properties":{"zip_code":"23112","facility_type":"Office Based Opioid Treatment","city":"Midlothian","name":"Right Path Treatment Centers","input_location":"5001 West Village Green Drive. Suite 205, Midlothian, VA 23112","latitude":"37.41982601","state":"VA","center_of_population":"false","longitude":"-77.63973297","output_zip":"23112","output_location":"5001 W Village Green Dr, Ste 205, Midlothian, Virginia, 23112","address":"5001 West Village Green Drive. Suite 205"},"geometry":{"type":"Point","coordinates":[-77.63973297,37.41982601]}},{"type":"Feature","properties":{"zip_code":"22401","facility_type":"Office Based Opioid Treatment","city":"Fredericksburg","name":"Rappahannock Area CSB","input_location":"600 Jackson St, Fredericksburg, VA 22401","latitude":"38.29719799491446","state":"VA","center_of_population":"false","longitude":"-77.46218096346696","output_zip":"22401","output_location":"600 Jackson St, Fredericksburg, Virginia, 22401","address":"600 Jackson St"},"geometry":{"type":"Point","coordinates":[-77.46218096346696,38.29719799491446]}},{"type":"Feature","properties":{"zip_code":"23513","facility_type":"Office Based Opioid Treatment","city":"Norfolk","name":"Lifeâ€™s Journey LLC","input_location":"2551 Eltham Ave., Suite F, Norfolk, VA 23513","latitude":"36.87731998361522","state":"VA","center_of_population":"false","longitude":"-76.22217796566997","output_zip":"23513","output_location":"2551 Eltham Ave, Ste F, Norfolk, Virginia, 23513","address":"2551 Eltham Ave., Suite F"},"geometry":{"type":"Point","coordinates":[-76.22217796566997,36.87731998361522]}},{"type":"Feature","properties":{"zip_code":"23140","facility_type":"Office Based Opioid Treatment","city":"Forge","name":"Henrico Area MH and Developmental Services","input_location":"9403-A Pocahontas Trail Providence , Forge, VA 23140","latitude":"37.44077900771087","state":"VA","center_of_population":"false","longitude":"-77.03495996866141","output_zip":"23140","output_location":"9403A Pocahontas Trl, Providence Forge, Virginia, 23140","address":"9403-A Pocahontas Trail Providence"},"geometry":{"type":"Point","coordinates":[-77.03495996866141,37.44077900771087]}},{"type":"Feature","properties":{"zip_code":"37601","facility_type":"Office Based Opioid Treatment","city":"Johnson City","name":"East Tennessee Recovery","input_location":"2408 Susannah St, Johnson City, TN 37601","latitude":"36.35040803","state":"TN","center_of_population":"false","longitude":"-82.37393758","output_zip":"37601","output_location":"2408 Susannah St, Johnson City, Tennessee, 37601","address":"2408 Susannah St"},"geometry":{"type":"Point","coordinates":[-82.37393758,36.35040803]}},{"type":"Feature","properties":{"zip_code":"22407","facility_type":"Office Based Opioid Treatment","city":"Fredericksburg","name":"SaVida Health of Fredericksburg","input_location":"6330 Five Mile Centre Park, Suite 400, Fredericksburg, VA 22407","latitude":"38.28849699","state":"VA","center_of_population":"false","longitude":"-77.55474098","output_zip":"22407","output_location":"6330 Five Mile Centre Park, Ste 400, Fredericksburg, Virginia, 22407","address":"6330 Five Mile Centre Park, Suite 400"},"geometry":{"type":"Point","coordinates":[-77.55474098,38.28849699]}},{"type":"Feature","properties":{"zip_code":"23434","facility_type":"Office Based Opioid Treatment","city":"Suffolk","name":"Western Tidewater CSB","input_location":"1000 Commercial Lane, Suffolk, VA 23434","latitude":"36.77878799","state":"VA","center_of_population":"false","longitude":"-76.58064598","output_zip":"23434","output_location":"1000 Commercial Ln, Suffolk, Virginia, 23434","address":"1000 Commercial Lane"},"geometry":{"type":"Point","coordinates":[-76.58064598,36.77878799]}},{"type":"Feature","properties":{"zip_code":"24817","facility_type":"Office Based Opioid Treatment","city":"Bradshaw","name":"Hopkins Medical Association","input_location":"1616 Mountaineer Highway, Bradshaw, WV 24817","latitude":"37.37015404500443","state":"WV","center_of_population":"false","longitude":"-81.79917782219731","output_zip":"24873","output_location":"1616 Mountaineer Hwy, Paynesville, West Virginia, 24873","address":"1616 Mountaineer Highway"},"geometry":{"type":"Point","coordinates":[-81.79917782219731,37.37015404500443]}},{"type":"Feature","properties":{"zip_code":"24266","facility_type":"Office Based Opioid Treatment","city":"Lebanon","name":"First Step Medical, LLC","input_location":"754 E. Main St., Lebanon, VA 24266","latitude":"36.90164699074889","state":"VA","center_of_population":"false","longitude":"-82.06656900330752","output_zip":"24266","output_location":"754 E Main St, Lebanon, Virginia, 24266","address":"754 E. Main St."},"geometry":{"type":"Point","coordinates":[-82.06656900330752,36.90164699074889]}},{"type":"Feature","properties":{"zip_code":"22601","facility_type":"Office Based Opioid Treatment","city":"Winchester","name":"Integrated Medical Services","input_location":"1001 Berryville Ave, Winchester, VA 22601","latitude":"39.18518801","state":"VA","center_of_population":"false","longitude":"-78.14297104","output_zip":"22601","output_location":"1001 Berryville Ave, Winchester, Virginia, 22601","address":"1001 Berryville Ave"},"geometry":{"type":"Point","coordinates":[-78.14297104,39.18518801]}},{"type":"Feature","properties":{"zip_code":"23505","facility_type":"Office Based Opioid Treatment","city":"Norfolk","name":"CleanSlate of Virginia, LLP","input_location":"160 Kingsley Lane, Suite 100 A, Norfolk, VA 23505","latitude":"36.89902001847467","state":"VA","center_of_population":"false","longitude":"-76.28232599994276","output_zip":"23505","output_location":"160 Kingsley Ln, Ste 100, Norfolk, Virginia, 23505","address":"160 Kingsley Lane, Suite 100 A"},"geometry":{"type":"Point","coordinates":[-76.28232599994276,36.89902001847467]}},{"type":"Feature","properties":{"zip_code":"24290","facility_type":"Office Based Opioid Treatment","city":"Weber City","name":"Emmaus Medical and Counseling, PLLC","input_location":"2834 US Highway 23 N, Weber City, VA 24290","latitude":"36.62812998361333","state":"VA","center_of_population":"false","longitude":"-82.55370903879111","output_zip":"24290","output_location":"2834 US Highway 23 N, Weber City, Virginia, 24290","address":"2834 US Highway 23 N"},"geometry":{"type":"Point","coordinates":[-82.55370903879111,36.62812998361333]}},{"type":"Feature","properties":{"zip_code":"22901","facility_type":"Office Based Opioid Treatment","city":"Charlottesville","name":"Addiction Allies, LLC","input_location":"631 Berkmar Circle, Charlottesville, VA 22901","latitude":"38.08567899190155","state":"VA","center_of_population":"false","longitude":"-78.47916096378079","output_zip":"22901","output_location":"631 Berkmar Cir, Charlottesville, Virginia, 22901","address":"631 Berkmar Circle"},"geometry":{"type":"Point","coordinates":[-78.47916096378079,38.08567899190155]}},{"type":"Feature","properties":{"zip_code":"23606","facility_type":"Office Based Opioid Treatment","city":"Newport News","name":"Available Mental Health Services","input_location":"12388 Warwick Blvd., Suite 303, Newport News, VA 23606","latitude":"37.06748499864129","state":"VA","center_of_population":"false","longitude":"-76.49168800399252","output_zip":"23606","output_location":"12388 Warwick Blvd, Ste 303, Newport News, Virginia, 23606","address":"12388 Warwick Blvd., Suite 303"},"geometry":{"type":"Point","coordinates":[-76.49168800399252,37.06748499864129]}},{"type":"Feature","properties":{"zip_code":"24266","facility_type":"Office Based Opioid Treatment","city":"Lebanon","name":"Highpower","input_location":"2003 E. Main St, Lebanon, VA 24266","latitude":"36.90815298208415","state":"VA","center_of_population":"false","longitude":"-82.0453779595184","output_zip":"24266","output_location":"2003 E Main St, Lebanon, Virginia, 24266","address":"2003 E. Main St"},"geometry":{"type":"Point","coordinates":[-82.0453779595184,36.90815298208415]}},{"type":"Feature","properties":{"zip_code":"23805","facility_type":"Office Based Opioid Treatment","city":"Prince George","name":"Starting Point of Virginia, PC","input_location":"10531 South Crater Road South, Prince George, VA 23805","latitude":"37.16768399","state":"VA","center_of_population":"false","longitude":"-77.35701599","output_zip":"23805","output_location":"10531 S Crater Rd, Petersburg, Virginia, 23805","address":"10531 South Crater Road South"},"geometry":{"type":"Point","coordinates":[-77.35701599,37.16768399]}},{"type":"Feature","properties":{"zip_code":"24641","facility_type":"Office Based Opioid Treatment","city":"Richlands","name":"Hopkins Medical Association","input_location":"3150 Clinch Street, Richlands, VA 24641","latitude":"37.09401598530543","state":"VA","center_of_population":"false","longitude":"-81.8257760358163","output_zip":"24641","output_location":"3150 Clinch St, Richlands, Virginia, 24641","address":"3150 Clinch Street"},"geometry":{"type":"Point","coordinates":[-81.8257760358163,37.09401598530543]}},{"type":"Feature","properties":{"zip_code":"24401","facility_type":"Office Based Opioid Treatment","city":"Staunton","name":"Valley CSB","input_location":"85 Sangers Ln, Staunton, VA 24401","latitude":"38.12733998","state":"VA","center_of_population":"false","longitude":"-79.030111","output_zip":"24401","output_location":"85 Sangers Ln, Staunton, Virginia, 24401","address":"85 Sangers Ln"},"geometry":{"type":"Point","coordinates":[-79.030111,38.12733998]}},{"type":"Feature","properties":{"zip_code":"24401","facility_type":"Office Based Opioid Treatment","city":"Staunton","name":"Valley CSB","input_location":"85 Sangers Ln, Staunton, VA 24401","latitude":"38.12733998434959","state":"VA","center_of_population":"false","longitude":"-79.03011100321548","output_zip":"24401","output_location":"85 Sangers Ln, Staunton, Virginia, 24401","address":"85 Sangers Ln"},"geometry":{"type":"Point","coordinates":[-79.03011100321548,38.12733998434959]}},{"type":"Feature","properties":{"zip_code":"24572","facility_type":"Office Based Opioid Treatment","city":"Madison Heights","name":"Amherst Community Health Center FQHC","input_location":"134 Elon Rd, Madison Heights, VA 24572","latitude":"37.46758798019383","state":"VA","center_of_population":"false","longitude":"-79.12058903794762","output_zip":"24572","output_location":"134 Elon Rd, Madison Heights, Virginia, 24572","address":"134 Elon Rd"},"geometry":{"type":"Point","coordinates":[-79.12058903794762,37.46758798019383]}},{"type":"Feature","properties":{"zip_code":"24219","facility_type":"Office Based Opioid Treatment","city":"Big Stone Gap","name":"Frontier Health","input_location":"43 Champions Ave, Big Stone Gap, VA 24219","latitude":"36.88578202","state":"VA","center_of_population":"false","longitude":"-82.73180202","output_zip":"24219","output_location":"43 Champions Ave, Big Stone Gap, Virginia, 24219","address":"43 Champions Ave"},"geometry":{"type":"Point","coordinates":[-82.73180202,36.88578202]}},{"type":"Feature","properties":{"zip_code":"24014","facility_type":"Office Based Opioid Treatment","city":"Roanoke","name":"Spero Health of Virginia, LLC","input_location":"2502 Broadway Avenue, SW, Roanoke, VA 24014","latitude":"37.24888400977891","state":"VA","center_of_population":"false","longitude":"-79.95598600243963","output_zip":"24014","output_location":"2502 Broadway Ave SW, Roanoke, Virginia, 24014","address":"2502 Broadway Avenue, SW"},"geometry":{"type":"Point","coordinates":[-79.95598600243963,37.24888400977891]}},{"type":"Feature","properties":{"zip_code":"24502","facility_type":"Office Based Opioid Treatment","city":"Lynchburg","name":"The Madeline Centre","input_location":"18697 Forest Road, Lynchburg, VA 24502","latitude":"37.38488299","state":"VA","center_of_population":"false","longitude":"-79.24130797","output_zip":"24502","output_location":"18697 Forest Rd, Lynchburg, Virginia, 24502","address":"18697 Forest Road"},"geometry":{"type":"Point","coordinates":[-79.24130797,37.38488299]}},{"type":"Feature","properties":{"zip_code":"23060","facility_type":"Office Based Opioid Treatment","city":"Glen Allen","name":"Master Center for Addiction Medicine","input_location":"4212 Park Place Court, Glen Allen, VA 23060","latitude":"37.65284199623989","state":"VA","center_of_population":"false","longitude":"-77.57967202811487","output_zip":"23060","output_location":"4212 Park Place Ct, Glen Allen, Virginia, 23060","address":"4212 Park Place Court"},"geometry":{"type":"Point","coordinates":[-77.57967202811487,37.65284199623989]}},{"type":"Feature","properties":{"zip_code":"24333","facility_type":"Office Based Opioid Treatment","city":"Galax","name":"Mount Rogers CSB (Fernwood)","input_location":"6999 Carrollton Pike, Galax, VA 24333","latitude":"36.70163001","state":"VA","center_of_population":"false","longitude":"-80.85057404","output_zip":"24333","output_location":"6999 Carrollton Pike, Galax, Virginia, 24333","address":"6999 Carrollton Pike"},"geometry":{"type":"Point","coordinates":[-80.85057404,36.70163001]}},{"type":"Feature","properties":{"zip_code":"24016","facility_type":"Office Based Opioid Treatment","city":"Roanoke","name":"Blue Ridge Behavioral Healthcare","input_location":"611 McDwell Ave NW, Roanoke, VA 24016","latitude":"37.28254401464133","state":"VA","center_of_population":"false","longitude":"-79.94934300889696","output_zip":"24016","output_location":"611 McDowell Ave NW, Roanoke, Virginia, 24016","address":"611 McDwell Ave NW"},"geometry":{"type":"Point","coordinates":[-79.94934300889696,37.28254401464133]}},{"type":"Feature","properties":{"zip_code":"37601","facility_type":"Office Based Opioid Treatment","city":"Johnson City","name":"Athos Medical PLLC","input_location":"2408 Susannah St., Suite 4, Johnson City, TN 37601","latitude":"36.35057981421733","state":"TN","center_of_population":"false","longitude":"-82.37381755484911","output_zip":"37601","output_location":"2408 Susannah St, #4, Johnson City, Tennessee, 37601","address":"2408 Susannah St., Suite 4"},"geometry":{"type":"Point","coordinates":[-82.37381755484911,36.35057981421733]}},{"type":"Feature","properties":{"zip_code":"24171","facility_type":"Office Based Opioid Treatment","city":"Stuart","name":"Piedmont Regional CSB","input_location":"22280 Jeb Stuart Highway, Stuart , VA 24171","latitude":"36.62939799792571","state":"VA","center_of_population":"false","longitude":"-80.19574296669836","output_zip":"24171","output_location":"22280 Jeb Stuart Hwy, Stuart, Virginia, 24171","address":"22280 Jeb Stuart Highway"},"geometry":{"type":"Point","coordinates":[-80.19574296669836,36.62939799792571]}},{"type":"Feature","properties":{"zip_code":"24354","facility_type":"Office Based Opioid Treatment","city":"Marion","name":"Project LINK (Mount Rogers CSB)","input_location":"121 Broad Street, Marion, VA 24354","latitude":"36.83475999014208","state":"VA","center_of_population":"false","longitude":"-81.51792096976094","output_zip":"24354","output_location":"121 Broad St, Marion, Virginia, 24354","address":"121 Broad Street"},"geometry":{"type":"Point","coordinates":[-81.51792096976094,36.83475999014208]}},{"type":"Feature","properties":{"zip_code":"24293","facility_type":"Office Based Opioid Treatment","city":"Wise","name":"New Hope Addiction Recovery, Inc","input_location":"106 Spring Avenue, NE , Wise, VA 24293","latitude":"36.97783400629547","state":"VA","center_of_population":"false","longitude":"-82.57942203552436","output_zip":"24293","output_location":"106 Spring Ave NE, Wise, Virginia, 24293","address":"106 Spring Avenue, NE"},"geometry":{"type":"Point","coordinates":[-82.57942203552436,36.97783400629547]}},{"type":"Feature","properties":{"zip_code":"24151","facility_type":"Office Based Opioid Treatment","city":"Rocky Mount","name":"Piedmont Regional CSB","input_location":"30 Technology Dr, Rocky Mount , VA 24151","latitude":"37.01544","state":"VA","center_of_population":"false","longitude":"-79.89286901","output_zip":"24151","output_location":"30 Technology Dr, Rocky Mount, Virginia, 24151","address":"30 Technology Dr"},"geometry":{"type":"Point","coordinates":[-79.89286901,37.01544]}},{"type":"Feature","properties":{"zip_code":"24018","facility_type":"Office Based Opioid Treatment","city":"Roanoke","name":"Mental Wellness Group","input_location":"3959 Electric Rd, Suite 280, Roanoke, VA 24018","latitude":"37.22320399583467","state":"VA","center_of_population":"false","longitude":"-79.98554402961653","output_zip":"24018","output_location":"3959 Electric Rd, Ste 280, Roanoke, Virginia, 24018","address":"3959 Electric Rd, Suite 280"},"geometry":{"type":"Point","coordinates":[-79.98554402961653,37.22320399583467]}},{"type":"Feature","properties":{"zip_code":"22031","facility_type":"Office Based Opioid Treatment","city":"Fairfax","name":"Fairfax-Falls Church CSB","input_location":"8221 Willow Oaks Corporate Dr, Fairfax, VA 22031","latitude":"38.86367601","state":"VA","center_of_population":"false","longitude":"-77.23383596","output_zip":"22031","output_location":"8221 Willow Oaks Corporate Dr, Fairfax, Virginia, 22031","address":"8221 Willow Oaks Corporate Dr"},"geometry":{"type":"Point","coordinates":[-77.23383596,38.86367601]}},{"type":"Feature","properties":{"zip_code":"23462","facility_type":"Office Based Opioid Treatment","city":"Virginia Beach","name":"Human Services Dept, City of VA Beach CSB","input_location":"3134 Magic Hollow Blvd., Suite 200 , Virginia Beach, VA 23462","latitude":"36.80476733","state":"VA","center_of_population":"false","longitude":"-76.07771778","output_zip":"23453","output_location":"3134 Magic Hollow Blvd, Virginia Beach, Virginia, 23453","address":"3134 Magic Hollow Blvd., Suite 200"},"geometry":{"type":"Point","coordinates":[-76.07771778,36.80476733]}},{"type":"Feature","properties":{"zip_code":"23185","facility_type":"Office Based Opioid Treatment","city":"Williamsburg","name":"Colonial Behavioral Health CSB","input_location":"1657 Merrimac Trail, Williamsburg, VA 23185","latitude":"37.24547701759519","state":"VA","center_of_population":"false","longitude":"-76.65315103561298","output_zip":"23185","output_location":"1657 Merrimac Trl, Williamsburg, Virginia, 23185","address":"1657 Merrimac Trail"},"geometry":{"type":"Point","coordinates":[-76.65315103561298,37.24547701759519]}},{"type":"Feature","properties":{"zip_code":"37601","facility_type":"Office Based Opioid Treatment","city":"Johnson City","name":"Catalyst Health Solutions","input_location":"926 West Oakland Ave Suite 206, Johnson City, TN 37601","latitude":"36.35146645","state":"TN","center_of_population":"false","longitude":"-82.40166559","output_zip":"37604","output_location":"926 W Oakland Av, #206, Johnson City, Tennessee, 37604","address":"926 West Oakland Ave Suite 206"},"geometry":{"type":"Point","coordinates":[-82.40166559,36.35146645]}},{"type":"Feature","properties":{"zip_code":"20110","facility_type":"Office Based Opioid Treatment","city":"Manassas","name":"Starting Point of Virginia","input_location":"9274 Corporate Circle, Manassas, VA 20110","latitude":"38.754147","state":"VA","center_of_population":"false","longitude":"-77.49408701","output_zip":"20110","output_location":"9274 Corporate Cir, Manassas, Virginia, 20110","address":"9274 Corporate Circle"},"geometry":{"type":"Point","coordinates":[-77.49408701,38.754147]}},{"type":"Feature","properties":{"zip_code":"22401","facility_type":"Office Based Opioid Treatment","city":"Fredericksburg","name":"Rappahannock Area CSB","input_location":"600 Jackson St, Fredericksburg, VA 22401","latitude":"38.29719799","state":"VA","center_of_population":"false","longitude":"-77.46218096","output_zip":"22401","output_location":"600 Jackson St, Fredericksburg, Virginia, 22401","address":"600 Jackson St"},"geometry":{"type":"Point","coordinates":[-77.46218096,38.29719799]}},{"type":"Feature","properties":{"zip_code":"22901","facility_type":"Office Based Opioid Treatment","city":"Charlottesville","name":"Addiction Allies, LLC","input_location":"631 Berkmar Circle, Charlottesville, VA 22901","latitude":"38.08567899","state":"VA","center_of_population":"false","longitude":"-78.47916096","output_zip":"22901","output_location":"631 Berkmar Cir, Charlottesville, Virginia, 22901","address":"631 Berkmar Circle"},"geometry":{"type":"Point","coordinates":[-78.47916096,38.08567899]}},{"type":"Feature","properties":{"zip_code":"23116","facility_type":"Office Based Opioid Treatment","city":"Mechanicsville","name":"CleanSlate","input_location":"8220 Meadowbridge Rd. MOB1, Suite 310, Mechanicsville, VA 23116","latitude":"37.62770199","state":"VA","center_of_population":"false","longitude":"-77.38715597","output_zip":"23116","output_location":"8220 Meadowbridge Rd, Ste 310, Mechanicsville, Virginia, 23116","address":"8220 Meadowbridge Rd. MOB1, Suite 310"},"geometry":{"type":"Point","coordinates":[-77.38715597,37.62770199]}},{"type":"Feature","properties":{"zip_code":"24540","facility_type":"Office Based Opioid Treatment","city":"Danville","name":"Epic Health Partners","input_location":"157 Deer Run Road, Danville, VA 24540","latitude":"36.61342401831105","state":"VA","center_of_population":"false","longitude":"-79.40819803597788","output_zip":"24540","output_location":"157 Deer Run Rd, Danville, Virginia, 24540","address":"157 Deer Run Road"},"geometry":{"type":"Point","coordinates":[-79.40819803597788,36.61342401831105]}},{"type":"Feature","properties":{"zip_code":"24333","facility_type":"Office Based Opioid Treatment","city":"Galax","name":"Mount Rogers CSB (Fernwood)","input_location":"6999 Carrollton Pike, Galax, VA 24333","latitude":"36.70163001245895","state":"VA","center_of_population":"false","longitude":"-80.85057403931887","output_zip":"24333","output_location":"6999 Carrollton Pike, Galax, Virginia, 24333","address":"6999 Carrollton Pike"},"geometry":{"type":"Point","coordinates":[-80.85057403931887,36.70163001245895]}},{"type":"Feature","properties":{"zip_code":"24501","facility_type":"Office Based Opioid Treatment","city":"Lynchburg","name":"PRIS Plc","input_location":"2600 Memorial Ave., Suite 201B, Lynchburg, VA 24501","latitude":"37.40047299","state":"VA","center_of_population":"false","longitude":"-79.16792902","output_zip":"24501","output_location":"2600 Memorial Ave, Ste 201B, Lynchburg, Virginia, 24501","address":"2600 Memorial Ave., Suite 201B"},"geometry":{"type":"Point","coordinates":[-79.16792902,37.40047299]}},{"type":"Feature","properties":{"zip_code":"24382","facility_type":"Office Based Opioid Treatment","city":"Wytheville","name":"ReVIDA Recovery Centers","input_location":"255 Holston Rd, Wytheville, VA 24382","latitude":"36.9618019820013","state":"VA","center_of_population":"false","longitude":"-81.09744899957322","output_zip":"24382","output_location":"255 Holston Rd, Wytheville, Virginia, 24382","address":"255 Holston Rd"},"geometry":{"type":"Point","coordinates":[-81.09744899957322,36.9618019820013]}},{"type":"Feature","properties":{"zip_code":"23851","facility_type":"Office Based Opioid Treatment","city":"Franklin","name":"Western Tidewater CSB","input_location":"200 E. 2nd Avenue , Franklin, VA 23851","latitude":"36.67848200382593","state":"VA","center_of_population":"false","longitude":"-76.92202497130354","output_zip":"23851","output_location":"200 E 2nd Ave, Franklin, Virginia, 23851","address":"200 E. 2nd Avenue"},"geometry":{"type":"Point","coordinates":[-76.92202497130354,36.67848200382593]}},{"type":"Feature","properties":{"zip_code":"23666","facility_type":"Office Based Opioid Treatment","city":"Hampton","name":"Hampton-Newport News CSB","input_location":"400 Medical Dr, Hampton, VA 23666","latitude":"37.05622299","state":"VA","center_of_population":"false","longitude":"-76.38800604","output_zip":"23666","output_location":"400 Medical Dr, Hampton, Virginia, 23666","address":"400 Medical Dr"},"geometry":{"type":"Point","coordinates":[-76.38800604,37.05622299]}},{"type":"Feature","properties":{"zip_code":"23235","facility_type":"Office Based Opioid Treatment","city":"Richmond","name":"Leesburg Treatment Services","input_location":"681 Hioaks Rd, Richmond, VA 23235","latitude":"37.51201101928578","state":"VA","center_of_population":"false","longitude":"-77.52446101863146","output_zip":"23225","output_location":"681 Hioaks Rd, Richmond, Virginia, 23225","address":"681 Hioaks Rd"},"geometry":{"type":"Point","coordinates":[-77.52446101863146,37.51201101928578]}},{"type":"Feature","properties":{"zip_code":"23805","facility_type":"Office Based Opioid Treatment","city":"Petersburg","name":"Merakey Parkside Recovery","input_location":"2623 Park Avenue, Petersburg, VA 23805","latitude":"37.19602299","state":"VA","center_of_population":"false","longitude":"-77.377094","output_zip":"23805","output_location":"2623 Park Ave, Petersburg, Virginia, 23805","address":"2623 Park Avenue"},"geometry":{"type":"Point","coordinates":[-77.377094,37.19602299]}},{"type":"Feature","properties":{"zip_code":"37601","facility_type":"Office Based Opioid Treatment","city":"Johnson City","name":"Dragonfly Medical and BH Professional Corporation","input_location":"102 N. Broadway St, Johnson City, TN 37601","latitude":"36.33110282771807","state":"TN","center_of_population":"false","longitude":"-82.33854424317299","output_zip":"37601","output_location":"102 N Broadway St, Johnson City, Tennessee, 37601","address":"102 N. Broadway St"},"geometry":{"type":"Point","coordinates":[-82.33854424317299,36.33110282771807]}},{"type":"Feature","properties":{"zip_code":"22701","facility_type":"Office Based Opioid Treatment","city":"Culpepper","name":"SaVida Health of Culpepper","input_location":"767 Madison Rd, Suite 107, Culpepper, VA 22701","latitude":"38.45638098","state":"VA","center_of_population":"false","longitude":"-78.01766503","output_zip":"22701","output_location":"767 Madison Rd, Ste 107, Culpeper, Virginia, 22701","address":"767 Madison Rd, Suite 107"},"geometry":{"type":"Point","coordinates":[-78.01766503,38.45638098]}},{"type":"Feature","properties":{"zip_code":"23505","facility_type":"Office Based Opioid Treatment","city":"Norfolk","name":"BHG LIX, LLC (BHG Medical Services Virginia)","input_location":"110 Kingsley Lane, Suite 410 , Norfolk, VA 23505","latitude":"36.89853198216228","state":"VA","center_of_population":"false","longitude":"-76.28090501589743","output_zip":"23505","output_location":"110 Kingsley Ln, Ste 410, Norfolk, Virginia, 23505","address":"110 Kingsley Lane, Suite 410"},"geometry":{"type":"Point","coordinates":[-76.28090501589743,36.89853198216228]}},{"type":"Feature","properties":{"zip_code":"37711","facility_type":"Office Based Opioid Treatment","city":"Bulls Gap","name":"Emmaus Medical and Counseling, PLLC","input_location":"273 Highway 11E, Bulls Gap, TN 37711","latitude":"36.25232400198109","state":"TN","center_of_population":"false","longitude":"-83.08305396841982","output_zip":"37711","output_location":"273 Highway 11 E, Bulls Gap, Tennessee, 37711","address":"273 Highway 11E"},"geometry":{"type":"Point","coordinates":[-83.08305396841982,36.25232400198109]}},{"type":"Feature","properties":{"zip_code":"23503","facility_type":"Office Based Opioid Treatment","city":"Norfolk","name":"Radical Recovery Treatment Center, Inc","input_location":"9323 Sloane Street, Norfolk, VA 23503","latitude":"36.94634399","state":"VA","center_of_population":"false","longitude":"-76.25932002","output_zip":"23503","output_location":"9323 Sloane St, Norfolk, Virginia, 23503","address":"9323 Sloane Street"},"geometry":{"type":"Point","coordinates":[-76.25932002,36.94634399]}},{"type":"Feature","properties":{"zip_code":"22630","facility_type":"Office Based Opioid Treatment","city":"Front Royal","name":"SaVida Health of Front Royal","input_location":"316 Warren Ave, Suite 1, Front Royal, VA 22630","latitude":"38.92334402","state":"VA","center_of_population":"false","longitude":"-78.19305199","output_zip":"22630","output_location":"316 Warren Ave, Ste 1, Front Royal, Virginia, 22630","address":"316 Warren Ave, Suite 1"},"geometry":{"type":"Point","coordinates":[-78.19305199,38.92334402]}},{"type":"Feature","properties":{"zip_code":"22973","facility_type":"Office Based Opioid Treatment","city":"Stanardsville","name":"Region Ten CSB","input_location":"9963 Spotswood Trail, Stanardsville, VA 22973","latitude":"38.286291","state":"VA","center_of_population":"false","longitude":"-78.41928299","output_zip":"22973","output_location":"9963 Spotswood Trl, Stanardsville, Virginia, 22973","address":"9963 Spotswood Trail"},"geometry":{"type":"Point","coordinates":[-78.41928299,38.286291]}},{"type":"Feature","properties":{"zip_code":"24016","facility_type":"Office Based Opioid Treatment","city":"Roanoke","name":"Comprehensive Counseling Center","input_location":"1115 First St SW, Roanoke, VA 24016","latitude":"37.26277701","state":"VA","center_of_population":"false","longitude":"-79.94296103","output_zip":"24016","output_location":"1115 1st St SW, Roanoke, Virginia, 24016","address":"1115 First St SW"},"geometry":{"type":"Point","coordinates":[-79.94296103,37.26277701]}},{"type":"Feature","properties":{"zip_code":"24219","facility_type":"Office Based Opioid Treatment","city":"Big Stone Gap","name":"SaVida Health of Big Stone Gap","input_location":"310 Cloverleaf Square, Suite 2B, Big Stone Gap, VA 24219","latitude":"36.86416601","state":"VA","center_of_population":"false","longitude":"-82.76284901","output_zip":"24219","output_location":"310 Cloverleaf Sq, Big Stone Gap, Virginia, 24219","address":"310 Cloverleaf Square, Suite 2B"},"geometry":{"type":"Point","coordinates":[-82.76284901,36.86416601]}},{"type":"Feature","properties":{"zip_code":"20110","facility_type":"Office Based Opioid Treatment","city":"Manassas","name":"Starting Point of Virginia","input_location":"9274 Corporate Circle, Manassas, VA 20110","latitude":"38.75414700189333","state":"VA","center_of_population":"false","longitude":"-77.4940870131804","output_zip":"20110","output_location":"9274 Corporate Cir, Manassas, Virginia, 20110","address":"9274 Corporate Circle"},"geometry":{"type":"Point","coordinates":[-77.4940870131804,38.75414700189333]}},{"type":"Feature","properties":{"zip_code":"24112","facility_type":"Office Based Opioid Treatment","city":"Martinsville","name":"Piedmont Regional CSB","input_location":"24 Clay St, Martinsville, VA 24112","latitude":"36.691345","state":"VA","center_of_population":"false","longitude":"-79.86737302","output_zip":"24112","output_location":"24 Clay St, Martinsville, Virginia, 24112","address":"24 Clay St"},"geometry":{"type":"Point","coordinates":[-79.86737302,36.691345]}},{"type":"Feature","properties":{"zip_code":"22204","facility_type":"Office Based Opioid Treatment","city":"Arlington","name":"Arlington County Govt CSB","input_location":"2120 Washington Blvd., 4th Floor, Arlington, VA 22204","latitude":"38.87382801","state":"VA","center_of_population":"false","longitude":"-77.08444597","output_zip":"22204","output_location":"2120 Washington Blvd, Floor 4, Arlington, Virginia, 22204","address":"2120 Washington Blvd., 4th Floor"},"geometry":{"type":"Point","coordinates":[-77.08444597,38.87382801]}},{"type":"Feature","properties":{"zip_code":"24112","facility_type":"Office Based Opioid Treatment","city":"Martinsville","name":"Spero Health of Virginia, LLC","input_location":"314 Fairy Street, Martinsville, VA 24112","latitude":"36.69600701271371","state":"VA","center_of_population":"false","longitude":"-79.85985403873951","output_zip":"24112","output_location":"314 Fairy Street Ext, Martinsville, Virginia, 24112","address":"314 Fairy Street"},"geometry":{"type":"Point","coordinates":[-79.85985403873951,36.69600701271371]}},{"type":"Feature","properties":{"zip_code":"22124","facility_type":"Office Based Opioid Treatment","city":"Oakton","name":"Oakton Urgent Care","input_location":"2915 Hunter Mill Rd., Suite 11, Oakton, VA 22124","latitude":"38.88229100447253","state":"VA","center_of_population":"false","longitude":"-77.3005099768287","output_zip":"22124","output_location":"2915 Hunter Mill Rd, Ste 11, Oakton, Virginia, 22124","address":"2915 Hunter Mill Rd., Suite 11"},"geometry":{"type":"Point","coordinates":[-77.3005099768287,38.88229100447253]}},{"type":"Feature","properties":{"zip_code":"24401","facility_type":"Office Based Opioid Treatment","city":"Staunton","name":"Savida Health of Staunton","input_location":"40 Lambert St, Staunton, VA 24401","latitude":"38.16365399","state":"VA","center_of_population":"false","longitude":"-79.06883196","output_zip":"24401","output_location":"40 Lambert St, Staunton, Virginia, 24401","address":"40 Lambert St"},"geometry":{"type":"Point","coordinates":[-79.06883196,38.16365399]}},{"type":"Feature","properties":{"zip_code":"24273","facility_type":"Office Based Opioid Treatment","city":"Norton","name":"Spero Health of Virginia, LLC","input_location":"338 Coeburn Ave SE Suite 336, Norton, VA 24273","latitude":"36.93572060574475","state":"VA","center_of_population":"false","longitude":"-82.62187560059415","output_zip":"24273","output_location":"338 Coeburn Rd, Norton, Virginia, 24273","address":"338 Coeburn Ave SE Suite 336"},"geometry":{"type":"Point","coordinates":[-82.62187560059415,36.93572060574475]}},{"type":"Feature","properties":{"zip_code":"24060","facility_type":"Office Based Opioid Treatment","city":"Blacksburg","name":"NRV CSB","input_location":"700 University City Blvd, Blacksburg, VA 24060","latitude":"37.23301501350151","state":"VA","center_of_population":"false","longitude":"-80.43116799575797","output_zip":"24060","output_location":"700 University City Blvd, Blacksburg, Virginia, 24060","address":"700 University City Blvd"},"geometry":{"type":"Point","coordinates":[-80.43116799575797,37.23301501350151]}},{"type":"Feature","properties":{"zip_code":"24609","facility_type":"Office Based Opioid Treatment","city":"Cedar Bluff","name":"Cumberland Mountain CSB","input_location":"113 Cumberland Rd, Cedar Bluff, VA 24609","latitude":"37.00937201","state":"VA","center_of_population":"false","longitude":"-81.793699","output_zip":"24609","output_location":"113 Cumberland Rd, Cedar Bluff, Virginia, 24609","address":"113 Cumberland Rd"},"geometry":{"type":"Point","coordinates":[-81.793699,37.00937201]}},{"type":"Feature","properties":{"zip_code":"37615","facility_type":"Office Based Opioid Treatment","city":"Johnson City","name":"Over Mountain Recovery","input_location":"203 Gray Commons Circle, Suite 110, Johnson City, TN 37615","latitude":"36.39702197","state":"TN","center_of_population":"false","longitude":"-82.48904626","output_zip":"37615","output_location":"203 Gray Commons Cir, #110, Johnson City, Tennessee, 37615","address":"203 Gray Commons Circle, Suite 110"},"geometry":{"type":"Point","coordinates":[-82.48904626,36.39702197]}},{"type":"Feature","properties":{"zip_code":"24504","facility_type":"Office Based Opioid Treatment","city":"Lynchburg","name":"Horizon Behavioral Health CSB","input_location":"620 Court Street, Lynchburg, VA 24504","latitude":"37.41575399759027","state":"VA","center_of_population":"false","longitude":"-79.14549703669991","output_zip":"24504","output_location":"620 Court St, Lynchburg, Virginia, 24504","address":"620 Court Street"},"geometry":{"type":"Point","coordinates":[-79.14549703669991,37.41575399759027]}},{"type":"Feature","properties":{"zip_code":"23505","facility_type":"Office Based Opioid Treatment","city":"Norfolk","name":"CleanSlate of Virginia, LLP","input_location":"160 Kingsley Lane, Suite 100 A, Norfolk, VA 23505","latitude":"36.89902002","state":"VA","center_of_population":"false","longitude":"-76.282326","output_zip":"23505","output_location":"160 Kingsley Ln, Ste 100, Norfolk, Virginia, 23505","address":"160 Kingsley Lane, Suite 100 A"},"geometry":{"type":"Point","coordinates":[-76.282326,36.89902002]}},{"type":"Feature","properties":{"zip_code":"22630","facility_type":"Office Based Opioid Treatment","city":"Front Royal","name":"Virginia Addiction Medicaid, LLC","input_location":"132 Peyton St, Front Royal, VA 22630","latitude":"38.91887298269145","state":"VA","center_of_population":"false","longitude":"-78.19160602902603","output_zip":"22630","output_location":"132 Peyton St, Front Royal, Virginia, 22630","address":"132 Peyton St"},"geometry":{"type":"Point","coordinates":[-78.19160602902603,38.91887298269145]}},{"type":"Feature","properties":{"zip_code":"24016","facility_type":"Office Based Opioid Treatment","city":"Roanoke","name":"Blue Ridge Behavioral Healthcare","input_location":"611 McDwell Ave NW, Roanoke, VA 24016","latitude":"37.28254401","state":"VA","center_of_population":"false","longitude":"-79.94934301","output_zip":"24016","output_location":"611 McDowell Ave NW, Roanoke, Virginia, 24016","address":"611 McDwell Ave NW"},"geometry":{"type":"Point","coordinates":[-79.94934301,37.28254401]}},{"type":"Feature","properties":{"zip_code":"24210","facility_type":"Office Based Opioid Treatment","city":"Abingdon","name":"Highlands CSB*","input_location":"610 Campus Dr, Abingdon, VA 24210","latitude":"36.71085697911253","state":"VA","center_of_population":"false","longitude":"-81.99191901925575","output_zip":"24210","output_location":"610 Campus Dr, Abingdon, Virginia, 24210","address":"610 Campus Dr"},"geometry":{"type":"Point","coordinates":[-81.99191901925575,36.71085697911253]}},{"type":"Feature","properties":{"zip_code":"23805","facility_type":"Office Based Opioid Treatment","city":"Petersburg","name":"Spero Health of Virginia, LLC","input_location":"34 Medical Park Blvd, Suite A, Petersburg, VA 23805","latitude":"37.18126598","state":"VA","center_of_population":"false","longitude":"-77.36371296","output_zip":"23805","output_location":"34 Medical Park Blvd, Ste A, Petersburg, Virginia, 23805","address":"34 Medical Park Blvd, Suite A"},"geometry":{"type":"Point","coordinates":[-77.36371296,37.18126598]}},{"type":"Feature","properties":{"zip_code":"22046","facility_type":"Office Based Opioid Treatment","city":"Falls Church","name":"Kaiser Foundation Health Plan","input_location":"201 N. Washington St, Falls Church, VA 22046","latitude":"38.88394601","state":"VA","center_of_population":"false","longitude":"-77.170105","output_zip":"22046","output_location":"201 N Washington St, Falls Church, Virginia, 22046","address":"201 N. Washington St"},"geometry":{"type":"Point","coordinates":[-77.170105,38.88394601]}},{"type":"Feature","properties":{"zip_code":"20147","facility_type":"Office Based Opioid Treatment","city":"Ashburn","name":"Premier Psychiaty Center","input_location":"44355 Premier Plaza, Suite 120, Ashburn, VA 20147","latitude":"39.06137899917616","state":"VA","center_of_population":"false","longitude":"-77.46580496312389","output_zip":"20147","output_location":"44355 Premier Plz, Ste 120, Ashburn, Virginia, 20147","address":"44355 Premier Plaza, Suite 120"},"geometry":{"type":"Point","coordinates":[-77.46580496312389,39.06137899917616]}},{"type":"Feature","properties":{"zip_code":"24219","facility_type":"Office Based Opioid Treatment","city":"Big Stone Gap","name":"Frontier Health","input_location":"43 Champions Ave, Big Stone Gap, VA 24219","latitude":"36.88578201778502","state":"VA","center_of_population":"false","longitude":"-82.73180201776876","output_zip":"24219","output_location":"43 Champions Ave, Big Stone Gap, Virginia, 24219","address":"43 Champions Ave"},"geometry":{"type":"Point","coordinates":[-82.73180201776876,36.88578201778502]}},{"type":"Feature","properties":{"zip_code":"23606","facility_type":"Office Based Opioid Treatment","city":"Newport News","name":"Right Path Treatment Centers","input_location":"11745 Jefferson Ave. Suite 10B, Newport News, VA 23606","latitude":"37.08230198225114","state":"VA","center_of_population":"false","longitude":"-76.4810149914031","output_zip":"23606","output_location":"11745 Jefferson Ave, Ste 10B, Newport News, Virginia, 23606","address":"11745 Jefferson Ave. Suite 10B"},"geometry":{"type":"Point","coordinates":[-76.4810149914031,37.08230198225114]}},{"type":"Feature","properties":{"zip_code":"22601","facility_type":"Office Based Opioid Treatment","city":"Winchester","name":"Virginia Addiction Medicaid, LLC","input_location":"2281 Valley Ave, Winchester, VA 22601","latitude":"39.16126199027582","state":"VA","center_of_population":"false","longitude":"-78.1859999607252","output_zip":"22601","output_location":"2281 Valley Ave, Winchester, Virginia, 22601","address":"2281 Valley Ave"},"geometry":{"type":"Point","coordinates":[-78.1859999607252,39.16126199027582]}},{"type":"Feature","properties":{"zip_code":"23832","facility_type":"Office Based Opioid Treatment","city":"Chesterfield","name":"Chesterfield CSB","input_location":"6801 Lucy Corr Court, Chesterfield, VA 23832","latitude":"37.38221200992456","state":"VA","center_of_population":"false","longitude":"-77.50632903422523","output_zip":"23832","output_location":"6801 Lucy Corr Ct, Chesterfield, Virginia, 23832","address":"6801 Lucy Corr Court"},"geometry":{"type":"Point","coordinates":[-77.50632903422523,37.38221200992456]}},{"type":"Feature","properties":{"zip_code":"24523","facility_type":"Office Based Opioid Treatment","city":"Bedford","name":"Johnson Health Center","input_location":"582 Blue Ridge Ave, Bedford, VA 24523","latitude":"37.33751199","state":"VA","center_of_population":"false","longitude":"-79.53269201","output_zip":"24523","output_location":"582 Blue Ridge Ave, Bedford, Virginia, 24523","address":"582 Blue Ridge Ave"},"geometry":{"type":"Point","coordinates":[-79.53269201,37.33751199]}},{"type":"Feature","properties":{"zip_code":"24503","facility_type":"Office Based Opioid Treatment","city":"Lynchburg","name":"Centra Medical Grp â€“ Ctr. for Addiction in Medicine","input_location":"3300 Rivermont Avenue, Lynchburg, VA 24503","latitude":"37.43809399075717","state":"VA","center_of_population":"false","longitude":"-79.1879880052004","output_zip":"24503","output_location":"3300 Rivermont Ave, Lynchburg, Virginia, 24503","address":"3300 Rivermont Avenue"},"geometry":{"type":"Point","coordinates":[-79.1879880052004,37.43809399075717]}},{"type":"Feature","properties":{"zip_code":"24134","facility_type":"Office Based Opioid Treatment","city":"Pearisburg","name":"NRV CSB","input_location":"705 Wenonah Ave, Pearisburg, VA 24134","latitude":"37.32743598","state":"VA","center_of_population":"false","longitude":"-80.73178596","output_zip":"24134","output_location":"705 Wenonah Ave, Pearisburg, Virginia, 24134","address":"705 Wenonah Ave"},"geometry":{"type":"Point","coordinates":[-80.73178596,37.32743598]}},{"type":"Feature","properties":{"zip_code":"24060","facility_type":"Office Based Opioid Treatment","city":"Blacksburg","name":"TASL Clinic","input_location":"2609 Sheffied Dr, Blacksburg, VA 24060","latitude":"37.219962","state":"VA","center_of_population":"false","longitude":"-80.45134902","output_zip":"24060","output_location":"2609 Sheffield Dr, Blacksburg, Virginia, 24060","address":"2609 Sheffied Dr"},"geometry":{"type":"Point","coordinates":[-80.45134902,37.219962]}},{"type":"Feature","properties":{"zip_code":"24014","facility_type":"Office Based Opioid Treatment","city":"Roanoke","name":"Emerald Program","input_location":"1906 Belleview Ave SE, Roanoke, VA 24014","latitude":"37.25126099","state":"VA","center_of_population":"false","longitude":"-79.94230699","output_zip":"24014","output_location":"1906 Belleview Ave SE, Roanoke, Virginia, 24014","address":"1906 Belleview Ave SE"},"geometry":{"type":"Point","coordinates":[-79.94230699,37.25126099]}},{"type":"Feature","properties":{"zip_code":"22124","facility_type":"Office Based Opioid Treatment","city":"Abingdon","name":"VIDA Recovery Centers","input_location":"300 Valley St., NE, Abingdon, VA 22124","latitude":"36.71412701","state":"VA","center_of_population":"false","longitude":"-81.96731696","output_zip":"24210","output_location":"300 Valley St NE, Abingdon, Virginia, 24210","address":"300 Valley St., NE"},"geometry":{"type":"Point","coordinates":[-81.96731696,36.71412701]}},{"type":"Feature","properties":{"zip_code":"24266","facility_type":"Office Based Opioid Treatment","city":"Lebanon","name":"Cumberland Mountain CSB*","input_location":"216 Gilmer St, Lebanon, VA 24266","latitude":"36.90306198","state":"VA","center_of_population":"false","longitude":"-82.07614801","output_zip":"24266","output_location":"216 Gilmer St, Lebanon, Virginia, 24266","address":"216 Gilmer St"},"geometry":{"type":"Point","coordinates":[-82.07614801,36.90306198]}},{"type":"Feature","properties":{"zip_code":"24266","facility_type":"Office Based Opioid Treatment","city":"Lebanon","name":"Cumberland Mountain CSB*","input_location":"78 Rogers Street, Lebanon, VA 24266","latitude":"36.90311979524509","state":"VA","center_of_population":"false","longitude":"-82.07721249136267","output_zip":"24266","output_location":"78 Rogers St, Lebanon, Virginia, 24266","address":"78 Rogers Street"},"geometry":{"type":"Point","coordinates":[-82.07721249136267,36.90311979524509]}},{"type":"Feature","properties":{"zip_code":"22030","facility_type":"Office Based Opioid Treatment","city":"Fairfax","name":"Mason and Partners Clinic","input_location":"4400 University Dr, Fairfax, VA 22030","latitude":"38.83434500956645","state":"VA","center_of_population":"false","longitude":"-77.31089901053855","output_zip":"22030","output_location":"4400 University Dr, Fairfax, Virginia, 22030","address":"4400 University Dr"},"geometry":{"type":"Point","coordinates":[-77.31089901053855,38.83434500956645]}},{"type":"Feature","properties":{"zip_code":"23140","facility_type":"Office Based Opioid Treatment","city":"Forge","name":"Henrico Area MH and Developmental Services","input_location":"9403-A Pocahontas Trail Providence, Forge, VA 23140","latitude":"37.44077901","state":"VA","center_of_population":"false","longitude":"-77.03495997","output_zip":"23140","output_location":"9403A Pocahontas Trl, Providence Forge, Virginia, 23140","address":"9403-A Pocahontas Trail Providence"},"geometry":{"type":"Point","coordinates":[-77.03495997,37.44077901]}},{"type":"Feature","properties":{"zip_code":"24202","facility_type":"Office Based Opioid Treatment","city":"Bristol","name":"Catalyst Health Solutions","input_location":"2426 Lee Hwy, Suite 104, Bristol, VA 24202","latitude":"36.62941099","state":"VA","center_of_population":"false","longitude":"-82.14989903","output_zip":"24202","output_location":"2426 Lee Hwy, Ste 104, Bristol, Virginia, 24202","address":"2426 Lee Hwy, Suite 104"},"geometry":{"type":"Point","coordinates":[-82.14989903,36.62941099]}},{"type":"Feature","properties":{"zip_code":"22407","facility_type":"Office Based Opioid Treatment","city":"Fredericksburg","name":"SaVida Health of Fredericksburg","input_location":"6330 Five Mile Centre Park, Suite 400, Fredericksburg, VA 22407","latitude":"38.28849699268514","state":"VA","center_of_population":"false","longitude":"-77.55474097912887","output_zip":"22407","output_location":"6330 Five Mile Centre Park, Ste 400, Fredericksburg, Virginia, 22407","address":"6330 Five Mile Centre Park, Suite 400"},"geometry":{"type":"Point","coordinates":[-77.55474097912887,38.28849699268514]}},{"type":"Feature","properties":{"zip_code":"23666","facility_type":"Office Based Opioid Treatment","city":"Hampton","name":"Hampton-Newport News CSB","input_location":"400 Medical Dr, Hampton, VA 23666","latitude":"37.05622298971574","state":"VA","center_of_population":"false","longitude":"-76.38800604100712","output_zip":"23666","output_location":"400 Medical Dr, Hampton, Virginia, 23666","address":"400 Medical Dr"},"geometry":{"type":"Point","coordinates":[-76.38800604100712,37.05622298971574]}},{"type":"Feature","properties":{"zip_code":"24260","facility_type":"Office Based Opioid Treatment","city":"Honaker","name":"SaVida Health","input_location":"5554 Redbud Highway, Honaker, VA 24260","latitude":"37.0166410026218","state":"VA","center_of_population":"false","longitude":"-81.97227502333573","output_zip":"24260","output_location":"5554 Redbud Hwy, Honaker, Virginia, 24260","address":"5554 Redbud Highway"},"geometry":{"type":"Point","coordinates":[-81.97227502333573,37.0166410026218]}},{"type":"Feature","properties":{"zip_code":"22401","facility_type":"Office Based Opioid Treatment","city":"Fredericksburg","name":"Kaiser Foundation Health Plan","input_location":"1201 Hospital Dr, Fredericksburg, VA 22401","latitude":"38.310135","state":"VA","center_of_population":"false","longitude":"-77.48720203","output_zip":"22401","output_location":"1201 Hospital Dr, Fredericksburg, Virginia, 22401","address":"1201 Hospital Dr"},"geometry":{"type":"Point","coordinates":[-77.48720203,38.310135]}},{"type":"Feature","properties":{"zip_code":"23421","facility_type":"Office Based Opioid Treatment","city":"Parksley","name":"Eastern Shore CSB","input_location":"18469 Dunne Avenue, Parksley, VA 23421","latitude":"37.78313998","state":"VA","center_of_population":"false","longitude":"-75.65254198","output_zip":"23421","output_location":"18469 Dunne Ave, Parksley, Virginia, 23421","address":"18469 Dunne Avenue"},"geometry":{"type":"Point","coordinates":[-75.65254198,37.78313998]}},{"type":"Feature","properties":{"zip_code":"24201","facility_type":"Office Based Opioid Treatment","city":"Bristol","name":"Southwest Va Community Health System (New Day Recovery - Bristol)","input_location":"2195 Euclid Ave, Bristol, VA 24201","latitude":"36.59692600210985","state":"VA","center_of_population":"false","longitude":"-82.20957600614501","output_zip":"24201","output_location":"2195 Euclid Ave, Bristol, Virginia, 24201","address":"2195 Euclid Ave"},"geometry":{"type":"Point","coordinates":[-82.20957600614501,36.59692600210985]}},{"type":"Feature","properties":{"zip_code":"24201","facility_type":"Office Based Opioid Treatment","city":"Bristol","name":"East Tennessee Recovery","input_location":"329 Bonham Road, Bristol, VA 24201","latitude":"36.62332699","state":"VA","center_of_population":"false","longitude":"-82.12999797","output_zip":"24201","output_location":"329 Bonham Rd, Bristol, Virginia, 24201","address":"329 Bonham Road"},"geometry":{"type":"Point","coordinates":[-82.12999797,36.62332699]}},{"type":"Feature","properties":{"zip_code":"22192","facility_type":"Office Based Opioid Treatment","city":"Woodbridge","name":"Kaiser Foundation Health Plan","input_location":"14139 Potomac Mills Rd, Woodbridge, VA 22192","latitude":"38.63839819963948","state":"VA","center_of_population":"false","longitude":"-77.29392465077989","output_zip":"22192","output_location":"14139 Potomac Mills Rd, Woodbridge, Virginia, 22192","address":"14139 Potomac Mills Rd"},"geometry":{"type":"Point","coordinates":[-77.29392465077989,38.63839819963948]}},{"type":"Feature","properties":{"zip_code":"23601","facility_type":"Office Based Opioid Treatment","city":"Newport News","name":"Groups Recover Together","input_location":"6212 Jefferson Ave, Newport News, VA 23601","latitude":"37.02673998","state":"VA","center_of_population":"false","longitude":"-76.44867903","output_zip":"23605","output_location":"6212 Jefferson Ave, Newport News, Virginia, 23605","address":"6212 Jefferson Ave"},"geometry":{"type":"Point","coordinates":[-76.44867903,37.02673998]}},{"type":"Feature","properties":{"zip_code":"24609","facility_type":"Office Based Opioid Treatment","city":"Cedar Bluff","name":"Cumberland Mountain CSB","input_location":"113 Cumberland Rd, Cedar Bluff, VA 24609","latitude":"37.00937200664048","state":"VA","center_of_population":"false","longitude":"-81.79369899527808","output_zip":"24609","output_location":"113 Cumberland Rd, Cedar Bluff, Virginia, 24609","address":"113 Cumberland Rd"},"geometry":{"type":"Point","coordinates":[-81.79369899527808,37.00937200664048]}},{"type":"Feature","properties":{"zip_code":"22630","facility_type":"Office Based Opioid Treatment","city":"Front Royal","name":"SaVida Health of Front Royal","input_location":"316 Warren Ave, Suite 1, Front Royal, VA 22630","latitude":"38.92334401557378","state":"VA","center_of_population":"false","longitude":"-78.19305199114282","output_zip":"22630","output_location":"316 Warren Ave, Ste 1, Front Royal, Virginia, 22630","address":"316 Warren Ave, Suite 1"},"geometry":{"type":"Point","coordinates":[-78.19305199114282,38.92334401557378]}},{"type":"Feature","properties":{"zip_code":"24502","facility_type":"Office Based Opioid Treatment","city":"Lynchburg","name":"The Madeline Centre","input_location":"18697 Forest Road, Lynchburg, VA 24502","latitude":"37.38488298719045","state":"VA","center_of_population":"false","longitude":"-79.2413079735084","output_zip":"24502","output_location":"18697 Forest Rd, Lynchburg, Virginia, 24502","address":"18697 Forest Road"},"geometry":{"type":"Point","coordinates":[-79.2413079735084,37.38488298719045]}},{"type":"Feature","properties":{"zip_code":"24060","facility_type":"Office Based Opioid Treatment","city":"Blacksburg","name":"TASL Clinic","input_location":"2609 Sheffied Dr, Blacksburg, VA 24060","latitude":"37.21996200141496","state":"VA","center_of_population":"false","longitude":"-80.45134902021445","output_zip":"24060","output_location":"2609 Sheffield Dr, Blacksburg, Virginia, 24060","address":"2609 Sheffied Dr"},"geometry":{"type":"Point","coordinates":[-80.45134902021445,37.21996200141496]}},{"type":"Feature","properties":{"zip_code":"23434","facility_type":"Office Based Opioid Treatment","city":"Suffolk","name":"Western Tidewater CSB","input_location":"135 South Saratoga St, Suffolk, VA 23434","latitude":"36.72815500606231","state":"VA","center_of_population":"false","longitude":"-76.58532601622181","output_zip":"23434","output_location":"135 S Saratoga St, Suffolk, Virginia, 23434","address":"135 South Saratoga St"},"geometry":{"type":"Point","coordinates":[-76.58532601622181,36.72815500606231]}},{"type":"Feature","properties":{"zip_code":"23462","facility_type":"Office Based Opioid Treatment","city":"Virginia Beach","name":"Virginia Beach DHS Restore","input_location":"297 Independence Blvd Suite 126, Virginia Beach, VA 23462","latitude":"36.84483399","state":"VA","center_of_population":"false","longitude":"-76.14163399","output_zip":"23462","output_location":"297 Independence Blvd, Ste 126, Virginia Beach, Virginia, 23462","address":"297 Independence Blvd Suite 126"},"geometry":{"type":"Point","coordinates":[-76.14163399,36.84483399]}},{"type":"Feature","properties":{"zip_code":"22835","facility_type":"Office Based Opioid Treatment","city":"Luray","name":"Northwestern CSB*","input_location":"136 General Drive, Suite 300, Luray, VA 22835","latitude":"38.66331101798608","state":"VA","center_of_population":"false","longitude":"-78.4904399879698","output_zip":"22835","output_location":"136 General Dr, Luray, Virginia, 22835","address":"136 General Drive, Suite 300"},"geometry":{"type":"Point","coordinates":[-78.4904399879698,38.66331101798608]}},{"type":"Feature","properties":{"zip_code":"24073","facility_type":"Office Based Opioid Treatment","city":"Christiansburg","name":"Community Health Center of NRV","input_location":"215 Roanoke St, Christiansburg, VA 24073","latitude":"37.12970001023714","state":"VA","center_of_population":"false","longitude":"-80.40223903041438","output_zip":"24073","output_location":"215 Roanoke St, Christiansburg, Virginia, 24073","address":"215 Roanoke St"},"geometry":{"type":"Point","coordinates":[-80.40223903041438,37.12970001023714]}},{"type":"Feature","properties":{"zip_code":"22601","facility_type":"Office Based Opioid Treatment","city":"Winchester","name":"Winchester Recovery, LLC","input_location":"117 West Boscawen St Suite 206, Winchester, VA 22601","latitude":"39.18434600307808","state":"VA","center_of_population":"false","longitude":"-78.16777602684115","output_zip":"22601","output_location":"117 W Boscawen St, Ste 206, Winchester, Virginia, 22601","address":"117 West Boscawen St Suite 206"},"geometry":{"type":"Point","coordinates":[-78.16777602684115,39.18434600307808]}},{"type":"Feature","properties":{"zip_code":"24354","facility_type":"Office Based Opioid Treatment","city":"Marion","name":"Lisa H. Moore Counseling Center (Mount Rogers CSB)","input_location":"216 Hospital Avenue, Marion, VA 24354","latitude":"36.835273","state":"VA","center_of_population":"false","longitude":"-81.51392599","output_zip":"24354","output_location":"216 Hospital Ave, Marion, Virginia, 24354","address":"216 Hospital Avenue"},"geometry":{"type":"Point","coordinates":[-81.51392599,36.835273]}},{"type":"Feature","properties":{"zip_code":"24639","facility_type":"Office Based Opioid Treatment","city":"Oakwood","name":"SaVida Health of Buchanan County","input_location":"13120 Riverside Drive, Oakwood, VA 24639","latitude":"37.22276998088824","state":"VA","center_of_population":"false","longitude":"-82.02700901870942","output_zip":"24631","output_location":"13120 Riverside Dr, Oakwood, Virginia, 24631","address":"13120 Riverside Drive"},"geometry":{"type":"Point","coordinates":[-82.02700901870942,37.22276998088824]}},{"type":"Feature","properties":{"zip_code":"22601","facility_type":"Office Based Opioid Treatment","city":"Winchester","name":"Winchester Comm. Mental Health Ctr","input_location":"36 Ricketts Dr, Winchester, VA 22601","latitude":"39.165403991549","state":"VA","center_of_population":"false","longitude":"-78.17427401345888","output_zip":"22601","output_location":"36 Ricketts Dr, Winchester, Virginia, 22601","address":"36 Ricketts Dr"},"geometry":{"type":"Point","coordinates":[-78.17427401345888,39.165403991549]}},{"type":"Feature","properties":{"zip_code":"23219","facility_type":"Office Based Opioid Treatment","city":"Richmond","name":"MCV \u0096 Starting Anew Clinic","input_location":"401 N. 11th St, Richmond, VA 23219","latitude":"37.54069599","state":"VA","center_of_population":"false","longitude":"-77.43078101","output_zip":"23219","output_location":"401 N 11th St, Richmond, Virginia, 23219","address":"401 N. 11th St"},"geometry":{"type":"Point","coordinates":[-77.43078101,37.54069599]}},{"type":"Feature","properties":{"zip_code":"24266","facility_type":"Office Based Opioid Treatment","city":"Lebanon","name":"SaVida Health of Lebanon","input_location":"1249 E Main St, Lebanon, VA 24266","latitude":"36.90417899606012","state":"VA","center_of_population":"false","longitude":"-82.0581369763511","output_zip":"24266","output_location":"1249 E Main St, Lebanon, Virginia, 24266","address":"1249 E Main St"},"geometry":{"type":"Point","coordinates":[-82.0581369763511,36.90417899606012]}},{"type":"Feature","properties":{"zip_code":"22664","facility_type":"Office Based Opioid Treatment","city":"Woodstock","name":"Spero Health of Virginia, LLC","input_location":"110 East High Street, Woodstock, VA 22664","latitude":"38.87990798749024","state":"VA","center_of_population":"false","longitude":"-78.5061390411603","output_zip":"22664","output_location":"110 E High St, Woodstock, Virginia, 22664","address":"110 East High Street"},"geometry":{"type":"Point","coordinates":[-78.5061390411603,38.87990798749024]}},{"type":"Feature","properties":{"zip_code":"24201","facility_type":"Office Based Opioid Treatment","city":"Bristol","name":"Highlands CSB*","input_location":"1969 Lee Highway, Suite U-3, Bristol, VA 24201","latitude":"36.62298500380618","state":"VA","center_of_population":"false","longitude":"-82.1612150232127","output_zip":"24201","output_location":"1969 Lee Hwy, Ste U, Bristol, Virginia, 24201","address":"1969 Lee Highway, Suite U-3"},"geometry":{"type":"Point","coordinates":[-82.1612150232127,36.62298500380618]}},{"type":"Feature","properties":{"zip_code":"24219","facility_type":"Office Based Opioid Treatment","city":"Big Stone Gap","name":"SaVida Health of Big Stone Gap","input_location":"310 Cloverleaf Square, Suite 2B, Big Stone Gap, VA 24219","latitude":"36.86416601150491","state":"VA","center_of_population":"false","longitude":"-82.76284900622575","output_zip":"24219","output_location":"310 Cloverleaf Sq, Big Stone Gap, Virginia, 24219","address":"310 Cloverleaf Square, Suite 2B"},"geometry":{"type":"Point","coordinates":[-82.76284900622575,36.86416601150491]}},{"type":"Feature","properties":{"zip_code":"23421","facility_type":"Office Based Opioid Treatment","city":"Parksley","name":"Eastern Shore CSB","input_location":"18469 Dunne Avenue, Parksley, VA 23421","latitude":"37.78313998029714","state":"VA","center_of_population":"false","longitude":"-75.6525419818482","output_zip":"23421","output_location":"18469 Dunne Ave, Parksley, Virginia, 23421","address":"18469 Dunne Avenue"},"geometry":{"type":"Point","coordinates":[-75.6525419818482,37.78313998029714]}},{"type":"Feature","properties":{"zip_code":"24141","facility_type":"Office Based Opioid Treatment","city":"Radford","name":"Carilion Medical Center- St. Albans","input_location":"2900 Lamb Circle , Radford, VA 24141","latitude":"37.08866502022774","state":"VA","center_of_population":"false","longitude":"-80.5053569751351","output_zip":"24073","output_location":"2900 Lamb Cir, Christiansburg, Virginia, 24073","address":"2900 Lamb Circle"},"geometry":{"type":"Point","coordinates":[-80.5053569751351,37.08866502022774]}},{"type":"Feature","properties":{"zip_code":"24202","facility_type":"Office Based Opioid Treatment","city":"Bristol","name":"Renaissance Medical Care","input_location":"284 Blevins Blvd, Bristol, VA 24202","latitude":"36.63037398673146","state":"VA","center_of_population":"false","longitude":"-82.1503939862132","output_zip":"24202","output_location":"284 Blevins Blvd, Bristol, Virginia, 24202","address":"284 Blevins Blvd"},"geometry":{"type":"Point","coordinates":[-82.1503939862132,36.63037398673146]}},{"type":"Feature","properties":{"zip_code":"23188","facility_type":"Office Based Opioid Treatment","city":"Williamsburg","name":"Addiction Recovery Center of VA","input_location":"5000 New Point Road., Suite 3201, Williamsburg, VA 23188","latitude":"37.30948198461415","state":"VA","center_of_population":"false","longitude":"-76.75247600150875","output_zip":"23188","output_location":"5000 New Point Rd, Ste 3201, Williamsburg, Virginia, 23188","address":"5000 New Point Road., Suite 3201"},"geometry":{"type":"Point","coordinates":[-76.75247600150875,37.30948198461415]}},{"type":"Feature","properties":{"zip_code":"37601","facility_type":"Office Based Opioid Treatment","city":"Johnson City","name":"Frontier Health","input_location":"109 West Watauga Ave, Johnson City, TN 37601","latitude":"36.32067415","state":"TN","center_of_population":"false","longitude":"-82.3567287","output_zip":"37604","output_location":"109 W Watauga Av, Johnson City, Tennessee, 37604","address":"109 West Watauga Ave"},"geometry":{"type":"Point","coordinates":[-82.3567287,36.32067415]}},{"type":"Feature","properties":{"zip_code":"24354","facility_type":"Office Based Opioid Treatment","city":"Marion","name":"Project LINK (Mount Rogers CSB)","input_location":"121 Broad Street, Marion, VA 24354","latitude":"36.83475999","state":"VA","center_of_population":"false","longitude":"-81.51792097","output_zip":"24354","output_location":"121 Broad St, Marion, Virginia, 24354","address":"121 Broad Street"},"geometry":{"type":"Point","coordinates":[-81.51792097,36.83475999]}},{"type":"Feature","properties":{"zip_code":"24501","facility_type":"Office Based Opioid Treatment","city":"Lynchburg","name":"Addiction Allies, LLC","input_location":"2137 Lakeside Dr., Suite 103, Lynchburg, VA 24501","latitude":"37.398857","state":"VA","center_of_population":"false","longitude":"-79.20736596","output_zip":"24501","output_location":"2137 Lakeside Dr, Ste 103, Lynchburg, Virginia, 24501","address":"2137 Lakeside Dr., Suite 103"},"geometry":{"type":"Point","coordinates":[-79.20736596,37.398857]}},{"type":"Feature","properties":{"zip_code":"23505","facility_type":"Office Based Opioid Treatment","city":"Norfolk","name":"The City of Norfolk CSB","input_location":"7460 Tidewater Drive, Norfolk, VA 23505","latitude":"36.91077099","state":"VA","center_of_population":"false","longitude":"-76.25539302","output_zip":"23505","output_location":"7460 Tidewater Dr, Norfolk, Virginia, 23505","address":"7460 Tidewater Drive"},"geometry":{"type":"Point","coordinates":[-76.25539302,36.91077099]}},{"type":"Feature","properties":{"zip_code":"24637","facility_type":"Office Based Opioid Treatment","city":"Pounding Mill","name":"Cumberland Mountain CSB","input_location":"226 Clay Dr, Pounding Mill, VA 24637","latitude":"37.06364600316792","state":"VA","center_of_population":"false","longitude":"-81.73959598957542","output_zip":"24637","output_location":"226 Clay Dr, Pounding Mill, Virginia, 24637","address":"226 Clay Dr"},"geometry":{"type":"Point","coordinates":[-81.73959598957542,37.06364600316792]}},{"type":"Feature","properties":{"zip_code":"24382","facility_type":"Office Based Opioid Treatment","city":"Wytheville","name":"Mount Rogers CSB","input_location":"750 West Ridge Road, Wytheville, VA 24382","latitude":"36.95402298912127","state":"VA","center_of_population":"false","longitude":"-81.09763298234792","output_zip":"24382","output_location":"750 W Ridge Rd, Wytheville, Virginia, 24382","address":"750 West Ridge Road"},"geometry":{"type":"Point","coordinates":[-81.09763298234792,36.95402298912127]}},{"type":"Feature","properties":{"zip_code":"24301","facility_type":"Office Based Opioid Treatment","city":"Pulaski","name":"NRV CSB","input_location":"1042 E Main St, Pulaski, VA 24301","latitude":"37.04739102024929","state":"VA","center_of_population":"false","longitude":"-80.76052901370475","output_zip":"24301","output_location":"1042 E Main St, Pulaski, Virginia, 24301","address":"1042 E Main St"},"geometry":{"type":"Point","coordinates":[-80.76052901370475,37.04739102024929]}},{"type":"Feature","properties":{"zip_code":"22031","facility_type":"Office Based Opioid Treatment","city":"Fairfax","name":"Fairfax-Falls Church CSB","input_location":"8221 Willow Oaks Corporate Dr, Fairfax, VA 22031","latitude":"38.86367601289584","state":"VA","center_of_population":"false","longitude":"-77.23383596038158","output_zip":"22031","output_location":"8221 Willow Oaks Corporate Dr, Fairfax, Virginia, 22031","address":"8221 Willow Oaks Corporate Dr"},"geometry":{"type":"Point","coordinates":[-77.23383596038158,38.86367601289584]}},{"type":"Feature","properties":{"zip_code":"23805","facility_type":"Office Based Opioid Treatment","city":"Petersburg","name":"Spero Health of Virginia, LLC","input_location":"34 Medical Park Blvd, Suite A, Petersburg, VA 23805","latitude":"37.18126598148666","state":"VA","center_of_population":"false","longitude":"-77.36371296335184","output_zip":"23805","output_location":"34 Medical Park Blvd, Ste A, Petersburg, Virginia, 23805","address":"34 Medical Park Blvd, Suite A"},"geometry":{"type":"Point","coordinates":[-77.36371296335184,37.18126598148666]}},{"type":"Feature","properties":{"zip_code":"24244","facility_type":"Office Based Opioid Treatment","city":"Duffield","name":"VIDA Recovery Centers","input_location":"198 Ross Carter Blvd, Duffield, VA 24244","latitude":"36.71475402","state":"VA","center_of_population":"false","longitude":"-82.81350697","output_zip":"24244","output_location":"198 Ross Carter Blvd, Duffield, Virginia, 24244","address":"198 Ross Carter Blvd"},"geometry":{"type":"Point","coordinates":[-82.81350697,36.71475402]}},{"type":"Feature","properties":{"zip_code":"24171","facility_type":"Office Based Opioid Treatment","city":"Stuart","name":"Piedmont Regional CSB","input_location":"22280 Jeb Stuart Highway, Stuart , VA 24171","latitude":"36.629398","state":"VA","center_of_population":"false","longitude":"-80.19574297","output_zip":"24171","output_location":"22280 Jeb Stuart Hwy, Stuart, Virginia, 24171","address":"22280 Jeb Stuart Highway"},"geometry":{"type":"Point","coordinates":[-80.19574297,36.629398]}},{"type":"Feature","properties":{"zip_code":"24073","facility_type":"Office Based Opioid Treatment","city":"Christiansburg","name":"Community Health Center of NRV","input_location":"215 Roanoke St, Christiansburg, VA 24073","latitude":"37.12970001","state":"VA","center_of_population":"false","longitude":"-80.40223903","output_zip":"24073","output_location":"215 Roanoke St, Christiansburg, Virginia, 24073","address":"215 Roanoke St"},"geometry":{"type":"Point","coordinates":[-80.40223903,37.12970001]}},{"type":"Feature","properties":{"zip_code":"24540","facility_type":"Office Based Opioid Treatment","city":"Danville","name":"Danville Pittsylvania CSB","input_location":"245 Hairston St, Danville, VA 24540","latitude":"36.59733101567129","state":"VA","center_of_population":"false","longitude":"-79.41645395914858","output_zip":"24540","output_location":"245 Hairston St, Danville, Virginia, 24540","address":"245 Hairston St"},"geometry":{"type":"Point","coordinates":[-79.41645395914858,36.59733101567129]}},{"type":"Feature","properties":{"zip_code":"24018","facility_type":"Office Based Opioid Treatment","city":"Roanoke","name":"Mental Wellness Group","input_location":"3959 Electric Rd, Suite 280, Roanoke, VA 24018","latitude":"37.223204","state":"VA","center_of_population":"false","longitude":"-79.98554403","output_zip":"24018","output_location":"3959 Electric Rd, Ste 280, Roanoke, Virginia, 24018","address":"3959 Electric Rd, Suite 280"},"geometry":{"type":"Point","coordinates":[-79.98554403,37.223204]}},{"type":"Feature","properties":{"zip_code":"22664","facility_type":"Office Based Opioid Treatment","city":"Woodstock","name":"Northwestern CSB*","input_location":"494 N. Main St., Suite 300, Woodstock, VA 22664","latitude":"38.88742198650141","state":"VA","center_of_population":"false","longitude":"-78.49898600880941","output_zip":"22664","output_location":"494 N Main St, Ste 300, Woodstock, Virginia, 22664","address":"494 N. Main St., Suite 300"},"geometry":{"type":"Point","coordinates":[-78.49898600880941,38.88742198650141]}},{"type":"Feature","properties":{"zip_code":"23219","facility_type":"Office Based Opioid Treatment","city":"Richmond","name":"MCV â€“ MOTIVATE Clinic","input_location":"501 North 2nd St, Richmond, VA 23219","latitude":"37.54640200992412","state":"VA","center_of_population":"false","longitude":"-77.43803303569463","output_zip":"23219","output_location":"501 N 2nd St, Richmond, Virginia, 23219","address":"501 North 2nd St"},"geometry":{"type":"Point","coordinates":[-77.43803303569463,37.54640200992412]}},{"type":"Feature","properties":{"zip_code":"22015","facility_type":"Office Based Opioid Treatment","city":"Burke","name":"Kaiser Foundation Health Plan","input_location":"5999 Burke Commons Rd, Burke, VA 22015","latitude":"38.78858501500849","state":"VA","center_of_population":"false","longitude":"-77.29778300844961","output_zip":"22015","output_location":"5999 Burke Commons Rd, Burke, Virginia, 22015","address":"5999 Burke Commons Rd"},"geometry":{"type":"Point","coordinates":[-77.29778300844961,38.78858501500849]}},{"type":"Feature","properties":{"zip_code":"24084","facility_type":"Office Based Opioid Treatment","city":"Dublin","name":"Community Health Center of NRV","input_location":"5826 Ruebush Rd, Dublin, VA 24084","latitude":"37.11566699","state":"VA","center_of_population":"false","longitude":"-80.669867","output_zip":"24084","output_location":"5826 Ruebush Rd, Dublin, Virginia, 24084","address":"5826 Ruebush Rd"},"geometry":{"type":"Point","coordinates":[-80.669867,37.11566699]}},{"type":"Feature","properties":{"zip_code":"23503","facility_type":"Office Based Opioid Treatment","city":"Norfolk","name":"Radical Recovery Treatment Center, Inc","input_location":"9323 Sloane Street, Norfolk, VA 23503","latitude":"36.94634399234613","state":"VA","center_of_population":"false","longitude":"-76.25932002265905","output_zip":"23503","output_location":"9323 Sloane St, Norfolk, Virginia, 23503","address":"9323 Sloane Street"},"geometry":{"type":"Point","coordinates":[-76.25932002265905,36.94634399234613]}},{"type":"Feature","properties":{"zip_code":"22192","facility_type":"Office Based Opioid Treatment","city":"Woodbridge","name":"Kaiser Foundation Health Plan","input_location":"14139 Potomac Mills Rd, Woodbridge, VA 22192","latitude":"38.6383982","state":"VA","center_of_population":"false","longitude":"-77.29392465","output_zip":"22192","output_location":"14139 Potomac Mills Rd, Woodbridge, Virginia, 22192","address":"14139 Potomac Mills Rd"},"geometry":{"type":"Point","coordinates":[-77.29392465,38.6383982]}},{"type":"Feature","properties":{"zip_code":"20191","facility_type":"Office Based Opioid Treatment","city":"Reston","name":"Bright Heart Health Inc","input_location":"12020 Sunrise Valley Dr, Reston, VA 20191","latitude":"38.94884000483381","state":"VA","center_of_population":"false","longitude":"-77.3631579975426","output_zip":"20191","output_location":"12020 Sunrise Valley Dr, Reston, Virginia, 20191","address":"12020 Sunrise Valley Dr"},"geometry":{"type":"Point","coordinates":[-77.3631579975426,38.94884000483381]}},{"type":"Feature","properties":{"zip_code":"24016","facility_type":"Office Based Opioid Treatment","city":"Roanoke","name":"Comprehensive Counseling Center","input_location":"1115 First St SW, Roanoke, VA 24016","latitude":"37.26277701429221","state":"VA","center_of_population":"false","longitude":"-79.94296102781918","output_zip":"24016","output_location":"1115 1st St SW, Roanoke, Virginia, 24016","address":"1115 First St SW"},"geometry":{"type":"Point","coordinates":[-79.94296102781918,37.26277701429221]}},{"type":"Feature","properties":{"zip_code":"23421","facility_type":"Office Based Opioid Treatment","city":"Parksley","name":"Eastern Shore CSB","input_location":"19056 Greenbush Rd, Parksley, VA 23421","latitude":"37.781447","state":"VA","center_of_population":"false","longitude":"-75.65586599","output_zip":"23421","output_location":"19056 Greenbush Rd, Parksley, Virginia, 23421","address":"19056 Greenbush Rd"},"geometry":{"type":"Point","coordinates":[-75.65586599,37.781447]}},{"type":"Feature","properties":{"zip_code":"23116","facility_type":"Office Based Opioid Treatment","city":"Mechanicsville","name":"CleanSlate","input_location":"8220 Meadowbridge Rd. MOB1, Suite 310, Mechanicsville, VA 23116","latitude":"37.62770198640773","state":"VA","center_of_population":"false","longitude":"-77.38715597306711","output_zip":"23116","output_location":"8220 Meadowbridge Rd, Ste 310, Mechanicsville, Virginia, 23116","address":"8220 Meadowbridge Rd. MOB1, Suite 310"},"geometry":{"type":"Point","coordinates":[-77.38715597306711,37.62770198640773]}},{"type":"Feature","properties":{"zip_code":"23220","facility_type":"Office Based Opioid Treatment","city":"Richmond","name":"The Daily Planet FQHC","input_location":"517 W. Grace St, Richmond, VA 23220","latitude":"37.54748801","state":"VA","center_of_population":"false","longitude":"-77.44786098","output_zip":"23220","output_location":"517 W Grace St, Richmond, Virginia, 23220","address":"517 W. Grace St"},"geometry":{"type":"Point","coordinates":[-77.44786098,37.54748801]}},{"type":"Feature","properties":{"zip_code":"24882","facility_type":"Office Based Opioid Treatment","city":"Wytheville","name":"SaVida Health of Wytheville","input_location":"350 S. 4th St., Suite D, Wytheville, VA 24882","latitude":"36.94692402","state":"VA","center_of_population":"false","longitude":"-81.082938","output_zip":"24382","output_location":"350 S 4th St, Ste D, Wytheville, Virginia, 24382","address":"350 S. 4th St., Suite D"},"geometry":{"type":"Point","coordinates":[-81.082938,36.94692402]}},{"type":"Feature","properties":{"zip_code":"24572","facility_type":"Office Based Opioid Treatment","city":"Madison Heights","name":"Amherst Community Health Center FQHC","input_location":"134 Elon Rd, Madison Heights, VA 24572","latitude":"37.46758798","state":"VA","center_of_population":"false","longitude":"-79.12058904","output_zip":"24572","output_location":"134 Elon Rd, Madison Heights, Virginia, 24572","address":"134 Elon Rd"},"geometry":{"type":"Point","coordinates":[-79.12058904,37.46758798]}},{"type":"Feature","properties":{"zip_code":"24201","facility_type":"Office Based Opioid Treatment","city":"Bristol","name":"Southwest Va Community Health System (New Day Recovery - Bristol)","input_location":"2195 Euclid Ave, Bristol, VA 24201","latitude":"36.596926","state":"VA","center_of_population":"false","longitude":"-82.20957601","output_zip":"24201","output_location":"2195 Euclid Ave, Bristol, Virginia, 24201","address":"2195 Euclid Ave"},"geometry":{"type":"Point","coordinates":[-82.20957601,36.596926]}},{"type":"Feature","properties":{"zip_code":"24540","facility_type":"Office Based Opioid Treatment","city":"Danville","name":"Danville Pittsylvania CSB","input_location":"245 Hairston St, Danville, VA 24540","latitude":"36.59733102","state":"VA","center_of_population":"false","longitude":"-79.41645396","output_zip":"24540","output_location":"245 Hairston St, Danville, Virginia, 24540","address":"245 Hairston St"},"geometry":{"type":"Point","coordinates":[-79.41645396,36.59733102]}},{"type":"Feature","properties":{"zip_code":"24354","facility_type":"Office Based Opioid Treatment","city":"Marion","name":"Lisa H. Moore Counseling Center (Mount Rogers CSB)","input_location":"216 Hospital Avenue, Marion, VA 24354","latitude":"36.83527300452593","state":"VA","center_of_population":"false","longitude":"-81.51392598706946","output_zip":"24354","output_location":"216 Hospital Ave, Marion, Virginia, 24354","address":"216 Hospital Avenue"},"geometry":{"type":"Point","coordinates":[-81.51392598706946,36.83527300452593]}},{"type":"Feature","properties":{"zip_code":"37601","facility_type":"Office Based Opioid Treatment","city":"Johnson City","name":"East Tennessee Recovery","input_location":"2408 Susannah St, Johnson City, TN 37601","latitude":"36.35040802711174","state":"TN","center_of_population":"false","longitude":"-82.37393758370258","output_zip":"37601","output_location":"2408 Susannah St, Johnson City, Tennessee, 37601","address":"2408 Susannah St"},"geometry":{"type":"Point","coordinates":[-82.37393758370258,36.35040802711174]}},{"type":"Feature","properties":{"zip_code":"24639","facility_type":"Office Based Opioid Treatment","city":"Oakwood","name":"SaVida Health of Buchanan County","input_location":"13120 Riverside Drive, Oakwood, VA 24639","latitude":"37.22276998","state":"VA","center_of_population":"false","longitude":"-82.02700902","output_zip":"24631","output_location":"13120 Riverside Dr, Oakwood, Virginia, 24631","address":"13120 Riverside Drive"},"geometry":{"type":"Point","coordinates":[-82.02700902,37.22276998]}},{"type":"Feature","properties":{"zip_code":"24277","facility_type":"Office Based Opioid Treatment","city":"Pennington Gap","name":"Hopkins Medical Association","input_location":"177 Dollar Drive, Pennington Gap, VA 24277","latitude":"36.74314101","state":"VA","center_of_population":"false","longitude":"-83.05443396","output_zip":"24277","output_location":"177 Dollar Dr, Pennington Gap, Virginia, 24277","address":"177 Dollar Drive"},"geometry":{"type":"Point","coordinates":[-83.05443396,36.74314101]}},{"type":"Feature","properties":{"zip_code":"23230","facility_type":"Office Based Opioid Treatment","city":"Richmond","name":"Peter Breslin, MD","input_location":"5540 Falmouth Street, Suite 103, Richmond, VA 23230","latitude":"37.60209301","state":"VA","center_of_population":"false","longitude":"-77.50775597","output_zip":"23230","output_location":"5540 Falmouth St, Ste 103, Richmond, Virginia, 23230","address":"5540 Falmouth Street, Suite 103"},"geometry":{"type":"Point","coordinates":[-77.50775597,37.60209301]}},{"type":"Feature","properties":{"zip_code":"23223","facility_type":"Office Based Opioid Treatment","city":"Henrico","name":"Henrico Area MH and Developmental Services","input_location":"3908 East Nine Mile Road, Henrico, VA 23223","latitude":"37.54174200703471","state":"VA","center_of_population":"false","longitude":"-77.38061196980095","output_zip":"23223","output_location":"3908 Nine Mile Rd, Richmond, Virginia, 23223","address":"3908 East Nine Mile Road"},"geometry":{"type":"Point","coordinates":[-77.38061196980095,37.54174200703471]}},{"type":"Feature","properties":{"zip_code":"23185","facility_type":"Office Based Opioid Treatment","city":"Williamsburg","name":"Colonial Behavioral Health CSB","input_location":"1657 Merrimac Trail, Williamsburg, VA 23185","latitude":"37.24547702","state":"VA","center_of_population":"false","longitude":"-76.65315104","output_zip":"23185","output_location":"1657 Merrimac Trl, Williamsburg, Virginia, 23185","address":"1657 Merrimac Trail"},"geometry":{"type":"Point","coordinates":[-76.65315104,37.24547702]}},{"type":"Feature","properties":{"zip_code":"24382","facility_type":"Office Based Opioid Treatment","city":"Wytheville","name":"Starting Point of Virginia","input_location":"710 West Ridge Road Suite I, Wytheville, VA 24382","latitude":"36.95335701","state":"VA","center_of_population":"false","longitude":"-81.09674199","output_zip":"24382","output_location":"710 W Ridge Rd, Ste I, Wytheville, Virginia, 24382","address":"710 West Ridge Road Suite I"},"geometry":{"type":"Point","coordinates":[-81.09674199,36.95335701]}},{"type":"Feature","properties":{"zip_code":"22003","facility_type":"Office Based Opioid Treatment","city":"Arlington","name":"National Capital Treatment & Recovery","input_location":"46 S. Glebe Rd, Arlington, VA 22003","latitude":"38.86940701","state":"VA","center_of_population":"false","longitude":"-77.10007302","output_zip":"22204","output_location":"46 S Glebe Rd, Arlington, Virginia, 22204","address":"46 S. Glebe Rd"},"geometry":{"type":"Point","coordinates":[-77.10007302,38.86940701]}},{"type":"Feature","properties":{"zip_code":"23434","facility_type":"Office Based Opioid Treatment","city":"Suffolk","name":"Suffolk Psychotherapy, Inc","input_location":"425 W. Washington St., Suite 4 , Suffolk, VA 23434","latitude":"36.729233","state":"VA","center_of_population":"false","longitude":"-76.58818399","output_zip":"23434","output_location":"425 W Washington St, Ste 4, Suffolk, Virginia, 23434","address":"425 W. Washington St., Suite 4"},"geometry":{"type":"Point","coordinates":[-76.58818399,36.729233]}},{"type":"Feature","properties":{"zip_code":"24266","facility_type":"Office Based Opioid Treatment","city":"Lebanon","name":"First Step Medical, LLC","input_location":"754 E. Main St., Lebanon, VA 24266","latitude":"36.90164699","state":"VA","center_of_population":"false","longitude":"-82.066569","output_zip":"24266","output_location":"754 E Main St, Lebanon, Virginia, 24266","address":"754 E. Main St."},"geometry":{"type":"Point","coordinates":[-82.066569,36.90164699]}},{"type":"Feature","properties":{"zip_code":"23462","facility_type":"Office Based Opioid Treatment","city":"Virginia Beach","name":"Right Path Treatment Centers","input_location":"101 N. Lynnhaven Rd., Suite 100, Virginia Beach, VA 23462","latitude":"36.83952799","state":"VA","center_of_population":"false","longitude":"-76.06918099","output_zip":"23452","output_location":"101 N Lynnhaven Rd, Ste 100, Virginia Beach, Virginia, 23452","address":"101 N. Lynnhaven Rd., Suite 100"},"geometry":{"type":"Point","coordinates":[-76.06918099,36.83952799]}},{"type":"Feature","properties":{"zip_code":"23462","facility_type":"Office Based Opioid Treatment","city":"Virginia Beach","name":"Tidewater Psych Services","input_location":"260 Grayson Rd, Virginia Beach, VA 23462","latitude":"36.83235899397748","state":"VA","center_of_population":"false","longitude":"-76.15590602911819","output_zip":"23462","output_location":"260 Grayson Rd, Virginia Beach, Virginia, 23462","address":"260 Grayson Rd"},"geometry":{"type":"Point","coordinates":[-76.15590602911819,36.83235899397748]}},{"type":"Feature","properties":{"zip_code":"23434","facility_type":"Office Based Opioid Treatment","city":"Suffolk","name":"Right Path Treatment Centers","input_location":"2790 Godwin Blvd. Suite 210, Suffolk, VA 23434","latitude":"36.77321398014818","state":"VA","center_of_population":"false","longitude":"-76.58073600222392","output_zip":"23434","output_location":"2790 Godwin Blvd, Ste 210, Suffolk, Virginia, 23434","address":"2790 Godwin Blvd. Suite 210"},"geometry":{"type":"Point","coordinates":[-76.58073600222392,36.77321398014818]}},{"type":"Feature","properties":{"zip_code":"23225","facility_type":"Office Based Opioid Treatment","city":"Richmond","name":"Groups Recover Together","input_location":"310 Turner Road, Richmond, VA 23225","latitude":"37.49539599171625","state":"VA","center_of_population":"false","longitude":"-77.5366170413497","output_zip":"23225","output_location":"310 Turner Rd, Richmond, Virginia, 23225","address":"310 Turner Road"},"geometry":{"type":"Point","coordinates":[-77.5366170413497,37.49539599171625]}},{"type":"Feature","properties":{"zip_code":"24541","facility_type":"Office Based Opioid Treatment","city":"Danville","name":"Starting Point of Virginia, Danville","input_location":"1555 Meadowview Dr., Suite 7, Danville, VA 24541","latitude":"36.60547600435348","state":"VA","center_of_population":"false","longitude":"-79.526763995889","output_zip":"24541","output_location":"1555 Meadowview Dr, Ste 7, Danville, Virginia, 24541","address":"1555 Meadowview Dr., Suite 7"},"geometry":{"type":"Point","coordinates":[-79.526763995889,36.60547600435348]}},{"type":"Feature","properties":{"zip_code":"24651","facility_type":"Office Based Opioid Treatment","city":"Tazewell","name":"Cumberland Mountain CSB","input_location":"526 West Main Street, Tazewell, VA 24651","latitude":"37.1142498745017","state":"VA","center_of_population":"false","longitude":"-81.52686082896848","output_zip":"24651","output_location":"526 W Main St, Tazewell, Virginia, 24651","address":"526 West Main Street"},"geometry":{"type":"Point","coordinates":[-81.52686082896848,37.1142498745017]}},{"type":"Feature","properties":{"zip_code":"24201","facility_type":"Office Based Opioid Treatment","city":"Bristol","name":"Catalyst Healt Solutions","input_location":"261 North Street, Bristol, VA 24201","latitude":"36.59609900163305","state":"VA","center_of_population":"false","longitude":"-82.22017802401454","output_zip":"24201","output_location":"261 North St, Bristol, Virginia, 24201","address":"261 North Street"},"geometry":{"type":"Point","coordinates":[-82.22017802401454,36.59609900163305]}},{"type":"Feature","properties":{"zip_code":"22093","facility_type":"Office Based Opioid Treatment","city":"Louisa","name":"Region Ten CSB Louisa Counseling Center","input_location":"101 Ashley St, Louisa, VA 22093","latitude":"38.02281688","state":"VA","center_of_population":"false","longitude":"-78.00248144","output_zip":"23093","output_location":"101 Ashley St, Louisa, Virginia, 23093","address":"101 Ashley St"},"geometry":{"type":"Point","coordinates":[-78.00248144,38.02281688]}},{"type":"Feature","properties":{"zip_code":"24210","facility_type":"Office Based Opioid Treatment","city":"Abingdon","name":"SaVida Health of Abingdon","input_location":"406 West Main Street, Suite 100, Abingdon, VA 24210","latitude":"36.70740401","state":"VA","center_of_population":"false","longitude":"-81.98364901","output_zip":"24210","output_location":"406 W Main St, Abingdon, Virginia, 24210","address":"406 West Main Street, Suite 100"},"geometry":{"type":"Point","coordinates":[-81.98364901,36.70740401]}},{"type":"Feature","properties":{"zip_code":"24382","facility_type":"Office Based Opioid Treatment","city":"Wytheville","name":"Starting Point of Virginia","input_location":"710 West Ridge Road Suite I, Wytheville, VA 24382","latitude":"36.95335700500448","state":"VA","center_of_population":"false","longitude":"-81.09674198604037","output_zip":"24382","output_location":"710 W Ridge Rd, Ste I, Wytheville, Virginia, 24382","address":"710 West Ridge Road Suite I"},"geometry":{"type":"Point","coordinates":[-81.09674198604037,36.95335700500448]}},{"type":"Feature","properties":{"zip_code":"24301","facility_type":"Office Based Opioid Treatment","city":"Pulaski","name":"NRV CSB","input_location":"1042 E Main St, Pulaski, VA 24301","latitude":"37.04739102","state":"VA","center_of_population":"false","longitude":"-80.76052901","output_zip":"24301","output_location":"1042 E Main St, Pulaski, Virginia, 24301","address":"1042 E Main St"},"geometry":{"type":"Point","coordinates":[-80.76052901,37.04739102]}},{"type":"Feature","properties":{"zip_code":"24620","facility_type":"Office Based Opioid Treatment","city":"Hurley","name":"Hopkins Medical Association","input_location":"10121 Hurley Road, Hurley, VA 24620","latitude":"37.42011899939743","state":"VA","center_of_population":"false","longitude":"-82.02008799743842","output_zip":"24620","output_location":"10121 Hurley Rd, Hurley, Virginia, 24620","address":"10121 Hurley Road"},"geometry":{"type":"Point","coordinates":[-82.02008799743842,37.42011899939743]}},{"type":"Feature","properties":{"zip_code":"23606","facility_type":"Office Based Opioid Treatment","city":"Newport News","name":"Right Path Treatment Centers","input_location":"11745 Jefferson Ave. Suite 10B, Newport News, VA 23606","latitude":"37.08230198","state":"VA","center_of_population":"false","longitude":"-76.48101499","output_zip":"23606","output_location":"11745 Jefferson Ave, Ste 10B, Newport News, Virginia, 23606","address":"11745 Jefferson Ave. Suite 10B"},"geometry":{"type":"Point","coordinates":[-76.48101499,37.08230198]}},{"type":"Feature","properties":{"zip_code":"23226","facility_type":"Office Based Opioid Treatment","city":"Henrico","name":"Henrico Area MH and Developmental Services CSB","input_location":"2010 Bremo Road, Suite 122, Henrico, VA 23226","latitude":"37.59110199","state":"VA","center_of_population":"false","longitude":"-77.50762697","output_zip":"23226","output_location":"2010 Bremo Rd, Ste 122, Richmond, Virginia, 23226","address":"2010 Bremo Road, Suite 122"},"geometry":{"type":"Point","coordinates":[-77.50762697,37.59110199]}},{"type":"Feature","properties":{"zip_code":"24541","facility_type":"Office Based Opioid Treatment","city":"Danville","name":"Starting Point of Virginia, Danville","input_location":"1555 Meadowview Dr., Suite 7, Danville, VA 24541","latitude":"36.605476","state":"VA","center_of_population":"false","longitude":"-79.526764","output_zip":"24541","output_location":"1555 Meadowview Dr, Ste 7, Danville, Virginia, 24541","address":"1555 Meadowview Dr., Suite 7"},"geometry":{"type":"Point","coordinates":[-79.526764,36.605476]}},{"type":"Feature","properties":{"zip_code":"23223","facility_type":"Office Based Opioid Treatment","city":"Henrico","name":"Henrico Area MH and Developmental Services CSB","input_location":"3908 East Nine Mile Road, Henrico, VA 23223","latitude":"37.54174201","state":"VA","center_of_population":"false","longitude":"-77.38061197","output_zip":"23223","output_location":"3908 Nine Mile Rd, Richmond, Virginia, 23223","address":"3908 East Nine Mile Road"},"geometry":{"type":"Point","coordinates":[-77.38061197,37.54174201]}},{"type":"Feature","properties":{"zip_code":"23803","facility_type":"Office Based Opioid Treatment","city":"Petersburg","name":"Central Virginia Health Services FQHC","input_location":"25 S Union Street, Petersburg, VA 23803","latitude":"37.22667764","state":"VA","center_of_population":"false","longitude":"-77.40443931","output_zip":"23803","output_location":"25 S Union St, Petersburg, Virginia, 23803","address":"25 S Union Street"},"geometry":{"type":"Point","coordinates":[-77.40443931,37.22667764]}},{"type":"Feature","properties":{"zip_code":"23832","facility_type":"Office Based Opioid Treatment","city":"Chesterfield","name":"Chesterfield CSB","input_location":"6801 Lucy Corr Court, Chesterfield, VA 23832","latitude":"37.38221201","state":"VA","center_of_population":"false","longitude":"-77.50632903","output_zip":"23832","output_location":"6801 Lucy Corr Ct, Chesterfield, Virginia, 23832","address":"6801 Lucy Corr Court"},"geometry":{"type":"Point","coordinates":[-77.50632903,37.38221201]}},{"type":"Feature","properties":{"zip_code":"23320","facility_type":"Office Based Opioid Treatment","city":"Chesapeake","name":"Chesapeake Integrated Behavioral Healthcare CSB","input_location":"224 Great Bridge Blvd , Chesapeake, VA 23320","latitude":"36.73557399620096","state":"VA","center_of_population":"false","longitude":"-76.24686401162616","output_zip":"23320","output_location":"224 Great Bridge Blvd, Chesapeake, Virginia, 23320","address":"224 Great Bridge Blvd"},"geometry":{"type":"Point","coordinates":[-76.24686401162616,36.73557399620096]}},{"type":"Feature","properties":{"zip_code":"24210","facility_type":"Office Based Opioid Treatment","city":"Abingdon","name":"Starting Point of Virginia","input_location":"301 Falls Drive, NW, Suite 353, Abingdon, VA 24210","latitude":"36.7125370058755","state":"VA","center_of_population":"false","longitude":"-81.9952479759209","output_zip":"24210","output_location":"301 Falls Dr NW, Abingdon, Virginia, 24210","address":"301 Falls Drive, NW, Suite 353"},"geometry":{"type":"Point","coordinates":[-81.9952479759209,36.7125370058755]}},{"type":"Feature","properties":{"zip_code":"22003","facility_type":"Office Based Opioid Treatment","city":"Arlington","name":"National Capital Treatment & Recovery","input_location":"46 S. Glebe Rd, Arlington, VA 22003","latitude":"38.8694070134635","state":"VA","center_of_population":"false","longitude":"-77.10007302328016","output_zip":"22204","output_location":"46 S Glebe Rd, Arlington, Virginia, 22204","address":"46 S. Glebe Rd"},"geometry":{"type":"Point","coordinates":[-77.10007302328016,38.8694070134635]}},{"type":"Feature","properties":{"zip_code":"23060","facility_type":"Office Based Opioid Treatment","city":"Glen Allen","name":"Master Center for Addiction Medicine","input_location":"4212 Park Place Court, Glen Allen, VA 23060","latitude":"37.652842","state":"VA","center_of_population":"false","longitude":"-77.57967203","output_zip":"23060","output_location":"4212 Park Place Ct, Glen Allen, Virginia, 23060","address":"4212 Park Place Court"},"geometry":{"type":"Point","coordinates":[-77.57967203,37.652842]}},{"type":"Feature","properties":{"zip_code":"23220","facility_type":"Office Based Opioid Treatment","city":"Richmond","name":"Center for Internal Medicine","input_location":"110 N. Robinson St., Suite 305, Richmond, VA 23220","latitude":"37.55345999","state":"VA","center_of_population":"false","longitude":"-77.47315698","output_zip":"23220","output_location":"110 N Robinson St, Ste 305, Richmond, Virginia, 23220","address":"110 N. Robinson St., Suite 305"},"geometry":{"type":"Point","coordinates":[-77.47315698,37.55345999]}},{"type":"Feature","properties":{"zip_code":"24210","facility_type":"Office Based Opioid Treatment","city":"Abingdon","name":"SaVida Health of Abingdon","input_location":"406 West Main Street, Suite 100, Abingdon, VA 24210","latitude":"36.7074040121899","state":"VA","center_of_population":"false","longitude":"-81.9836490144877","output_zip":"24210","output_location":"406 W Main St, Abingdon, Virginia, 24210","address":"406 West Main Street, Suite 100"},"geometry":{"type":"Point","coordinates":[-81.9836490144877,36.7074040121899]}},{"type":"Feature","properties":{"zip_code":"23601","facility_type":"Office Based Opioid Treatment","city":"Newport News","name":"Groups Recover Together","input_location":"6212 Jefferson Ave, Newport News, VA 23601","latitude":"37.02673998057224","state":"VA","center_of_population":"false","longitude":"-76.44867903387578","output_zip":"23605","output_location":"6212 Jefferson Ave, Newport News, Virginia, 23605","address":"6212 Jefferson Ave"},"geometry":{"type":"Point","coordinates":[-76.44867903387578,37.02673998057224]}},{"type":"Feature","properties":{"zip_code":"24426","facility_type":"Office Based Opioid Treatment","city":"Covington","name":"Alleghany Highlands CSB","input_location":"311 South Monroe Ave, Covington, VA 24426","latitude":"37.78922735","state":"VA","center_of_population":"false","longitude":"-79.98992999","output_zip":"24426","output_location":"311 S Monroe Ave, Covington, Virginia, 24426","address":"311 South Monroe Ave"},"geometry":{"type":"Point","coordinates":[-79.98992999,37.78922735]}},{"type":"Feature","properties":{"zip_code":"23505","facility_type":"Office Based Opioid Treatment","city":"Norfolk","name":"BHG LIX, LLC (BHG Medical Services Virginia)","input_location":"110 Kingsley Lane, Suite 410, Norfolk, VA 23505","latitude":"36.89853198","state":"VA","center_of_population":"false","longitude":"-76.28090502","output_zip":"23505","output_location":"110 Kingsley Ln, Ste 410, Norfolk, Virginia, 23505","address":"110 Kingsley Lane, Suite 410"},"geometry":{"type":"Point","coordinates":[-76.28090502,36.89853198]}},{"type":"Feature","properties":{"zip_code":"24620","facility_type":"Office Based Opioid Treatment","city":"Hurley","name":"Hopkins Medical Association","input_location":"10121 Hurley Road, Hurley, VA 24620","latitude":"37.420119","state":"VA","center_of_population":"false","longitude":"-82.020088","output_zip":"24620","output_location":"10121 Hurley Rd, Hurley, Virginia, 24620","address":"10121 Hurley Road"},"geometry":{"type":"Point","coordinates":[-82.020088,37.420119]}},{"type":"Feature","properties":{"zip_code":"24016","facility_type":"Office Based Opioid Treatment","city":"Roanoke","name":"EHS Support Services LLC, Embrace Recovery","input_location":"1122 2nd St SW, Roanoke, VA 24016","latitude":"37.26259101986075","state":"VA","center_of_population":"false","longitude":"-79.94350702499203","output_zip":"24016","output_location":"1122 2nd St SW, Roanoke, Virginia, 24016","address":"1122 2nd St SW"},"geometry":{"type":"Point","coordinates":[-79.94350702499203,37.26259101986075]}},{"type":"Feature","properties":{"zip_code":"22204","facility_type":"Office Based Opioid Treatment","city":"Arlington","name":"Arlington County Govt CSB","input_location":"2120 Washington Blvd., 4th Floor, Arlington, VA 22204","latitude":"38.87382800638389","state":"VA","center_of_population":"false","longitude":"-77.08444597063793","output_zip":"22204","output_location":"2120 Washington Blvd, Floor 4, Arlington, Virginia, 22204","address":"2120 Washington Blvd., 4th Floor"},"geometry":{"type":"Point","coordinates":[-77.08444597063793,38.87382800638389]}},{"type":"Feature","properties":{"zip_code":"20186","facility_type":"Office Based Opioid Treatment","city":"Warrenton","name":"Rappahannock-Rapidan CSB*","input_location":"Fauquier Clinic - 340 Hospital Drive, Warrenton, VA 20186","latitude":"38.71476001977678","state":"VA","center_of_population":"false","longitude":"-77.80951496111672","output_zip":"20186","output_location":"340 Hospital Dr, Warrenton, Virginia, 20186","address":"Fauquier Clinic - 340 Hospital Drive"},"geometry":{"type":"Point","coordinates":[-77.80951496111672,38.71476001977678]}},{"type":"Feature","properties":{"zip_code":"23606","facility_type":"Office Based Opioid Treatment","city":"Newport News","name":"Dominion Patient Care Services","input_location":"12388 Warwick Blvd., Suite 302, Newport News, VA 23606","latitude":"37.067485","state":"VA","center_of_population":"false","longitude":"-76.491688","output_zip":"23606","output_location":"12388 Warwick Blvd, Ste 302, Newport News, Virginia, 23606","address":"12388 Warwick Blvd., Suite 302"},"geometry":{"type":"Point","coordinates":[-76.491688,37.067485]}},{"type":"Feature","properties":{"zip_code":"22835","facility_type":"Office Based Opioid Treatment","city":"Luray","name":"Northwestern CSB*","input_location":"136 General Drive, Suite 300, Luray, VA 22835","latitude":"38.66331102","state":"VA","center_of_population":"false","longitude":"-78.49043999","output_zip":"22835","output_location":"136 General Dr, Luray, Virginia, 22835","address":"136 General Drive, Suite 300"},"geometry":{"type":"Point","coordinates":[-78.49043999,38.66331102]}},{"type":"Feature","properties":{"zip_code":"24014","facility_type":"Office Based Opioid Treatment","city":"Roanoke","name":"Carilion Medical Center","input_location":"2017 S Jefferson St, Roanoke, VA 24014","latitude":"37.25011063","state":"VA","center_of_population":"false","longitude":"-79.94429912","output_zip":"24014","output_location":"2017 S Jefferson St, Roanoke, Virginia, 24014","address":"2017 S Jefferson St"},"geometry":{"type":"Point","coordinates":[-79.94429912,37.25011063]}},{"type":"Feature","properties":{"zip_code":"37615","facility_type":"Office Based Opioid Treatment","city":"Johnson City","name":"Over Mountain Recovery","input_location":"203 Gray Commons Circle, Suite 110, Johnson City, TN 37615","latitude":"36.39702196996521","state":"TN","center_of_population":"false","longitude":"-82.48904626001094","output_zip":"37615","output_location":"203 Gray Commons Cir, #110, Johnson City, Tennessee, 37615","address":"203 Gray Commons Circle, Suite 110"},"geometry":{"type":"Point","coordinates":[-82.48904626001094,36.39702196996521]}},{"type":"Feature","properties":{"zip_code":"22801","facility_type":"Office Based Opioid Treatment","city":"Harrisonburg","name":"Starting Point of Virginia, Harrisonburg","input_location":"322 Neff Avenue, Harrisonburg, VA 22801","latitude":"38.42562401","state":"VA","center_of_population":"false","longitude":"-78.85085696","output_zip":"22801","output_location":"322 Neff Ave, Harrisonburg, Virginia, 22801","address":"322 Neff Avenue"},"geometry":{"type":"Point","coordinates":[-78.85085696,38.42562401]}},{"type":"Feature","properties":{"zip_code":"23434","facility_type":"Office Based Opioid Treatment","city":"Suffolk","name":"Right Path Treatment Centers","input_location":"2790 Godwin Blvd. Suite 210, Suffolk, VA 23434","latitude":"36.77321398","state":"VA","center_of_population":"false","longitude":"-76.580736","output_zip":"23434","output_location":"2790 Godwin Blvd, Ste 210, Suffolk, Virginia, 23434","address":"2790 Godwin Blvd. Suite 210"},"geometry":{"type":"Point","coordinates":[-76.580736,36.77321398]}},{"type":"Feature","properties":{"zip_code":"24263","facility_type":"Office Based Opioid Treatment","city":"Jonesville","name":"Frontier Health","input_location":"34084 Wilderness Rd, Jonesville, VA 24263","latitude":"36.68706100745456","state":"VA","center_of_population":"false","longitude":"-83.10397796477376","output_zip":"24263","output_location":"34084 Wilderness Rd, Jonesville, Virginia, 24263","address":"34084 Wilderness Rd"},"geometry":{"type":"Point","coordinates":[-83.10397796477376,36.68706100745456]}},{"type":"Feature","properties":{"zip_code":"24060","facility_type":"Office Based Opioid Treatment","city":"Blacksburg","name":"NRV CSB","input_location":"700 University City Blvd, Blacksburg, VA 24060","latitude":"37.23301501","state":"VA","center_of_population":"false","longitude":"-80.431168","output_zip":"24060","output_location":"700 University City Blvd, Blacksburg, Virginia, 24060","address":"700 University City Blvd"},"geometry":{"type":"Point","coordinates":[-80.431168,37.23301501]}},{"type":"Feature","properties":{"zip_code":"23219","facility_type":"Office Based Opioid Treatment","city":"Richmond","name":"MCV \u0096 MOTIVATE Clinic","input_location":"501 North 2nd St, Richmond, VA 23219","latitude":"37.54640201","state":"VA","center_of_population":"false","longitude":"-77.43803304","output_zip":"23219","output_location":"501 N 2nd St, Richmond, Virginia, 23219","address":"501 North 2nd St"},"geometry":{"type":"Point","coordinates":[-77.43803304,37.54640201]}},{"type":"Feature","properties":{"zip_code":"24266","facility_type":"Office Based Opioid Treatment","city":"Lebanon","name":"SaVida Health of Lebanon","input_location":"1249 E Main St, Lebanon, VA 24266","latitude":"36.904179","state":"VA","center_of_population":"false","longitude":"-82.05813698","output_zip":"24266","output_location":"1249 E Main St, Lebanon, Virginia, 24266","address":"1249 E Main St"},"geometry":{"type":"Point","coordinates":[-82.05813698,36.904179]}},{"type":"Feature","properties":{"zip_code":"37601","facility_type":"Office Based Opioid Treatment","city":"Johnson City","name":"Frontier Health","input_location":"109 West Watauga Ave, Johnson City, TN 37601","latitude":"36.32067414760621","state":"TN","center_of_population":"false","longitude":"-82.35672869829308","output_zip":"37604","output_location":"109 W Watauga Av, Johnson City, Tennessee, 37604","address":"109 West Watauga Ave"},"geometry":{"type":"Point","coordinates":[-82.35672869829308,36.32067414760621]}},{"type":"Feature","properties":{"zip_code":"23805","facility_type":"Office Based Opioid Treatment","city":"Petersburg","name":"Merakey Parkside Recovery","input_location":"2623 Park Avenue, Petersburg, VA 23805","latitude":"37.19602299257927","state":"VA","center_of_population":"false","longitude":"-77.37709400121919","output_zip":"23805","output_location":"2623 Park Ave, Petersburg, Virginia, 23805","address":"2623 Park Avenue"},"geometry":{"type":"Point","coordinates":[-77.37709400121919,37.19602299257927]}},{"type":"Feature","properties":{"zip_code":"24523","facility_type":"Office Based Opioid Treatment","city":"Bedford","name":"Johnson Health Center","input_location":"582 Blue Ridge Ave, Bedford, VA 24523","latitude":"37.33751199084219","state":"VA","center_of_population":"false","longitude":"-79.5326920130908","output_zip":"24523","output_location":"582 Blue Ridge Ave, Bedford, Virginia, 24523","address":"582 Blue Ridge Ave"},"geometry":{"type":"Point","coordinates":[-79.5326920130908,37.33751199084219]}},{"type":"Feature","properties":{"zip_code":"22030","facility_type":"Office Based Opioid Treatment","city":"Fairfax","name":"Mason and Partners Clinic","input_location":"4400 University Dr, Fairfax, VA 22030","latitude":"38.83434501","state":"VA","center_of_population":"false","longitude":"-77.31089901","output_zip":"22030","output_location":"4400 University Dr, Fairfax, Virginia, 22030","address":"4400 University Dr"},"geometry":{"type":"Point","coordinates":[-77.31089901,38.83434501]}},{"type":"Feature","properties":{"zip_code":"23434","facility_type":"Office Based Opioid Treatment","city":"Suffolk","name":"Western Tidewater CSB","input_location":"135 South Saratoga St, Suffolk, VA 23434","latitude":"36.72815501","state":"VA","center_of_population":"false","longitude":"-76.58532602","output_zip":"23434","output_location":"135 S Saratoga St, Suffolk, Virginia, 23434","address":"135 South Saratoga St"},"geometry":{"type":"Point","coordinates":[-76.58532602,36.72815501]}},{"type":"Feature","properties":{"zip_code":"24277","facility_type":"Office Based Opioid Treatment","city":"Pennington Gap","name":"Hopkins Medical Association","input_location":"177 Dollar Drive, Pennington Gap, VA 24277","latitude":"36.74314101074968","state":"VA","center_of_population":"false","longitude":"-83.05443396002727","output_zip":"24277","output_location":"177 Dollar Dr, Pennington Gap, Virginia, 24277","address":"177 Dollar Drive"},"geometry":{"type":"Point","coordinates":[-83.05443396002727,36.74314101074968]}},{"type":"Feature","properties":{"zip_code":"20121","facility_type":"Office Based Opioid Treatment","city":"Centreville","name":"Virginia Addiction Medicaid, LLC","input_location":"6138 Redwood Sq Center, Suite 204, Centreville, VA 20121","latitude":"38.829893","state":"VA","center_of_population":"false","longitude":"-77.43328896","output_zip":"20121","output_location":"6138 Redwood Square Ctr, Ste 204, Centreville, Virginia, 20121","address":"6138 Redwood Sq Center, Suite 204"},"geometry":{"type":"Point","coordinates":[-77.43328896,38.829893]}},{"type":"Feature","properties":{"zip_code":"24651","facility_type":"Office Based Opioid Treatment","city":"Tazewell","name":"Cumberland Mountain CSB","input_location":"526 West Main Street, Tazewell, VA 24651","latitude":"37.11424987","state":"VA","center_of_population":"false","longitude":"-81.52686083","output_zip":"24651","output_location":"526 W Main St, Tazewell, Virginia, 24651","address":"526 West Main Street"},"geometry":{"type":"Point","coordinates":[-81.52686083,37.11424987]}},{"type":"Feature","properties":{"zip_code":"22192","facility_type":"Office Based Opioid Treatment","city":"Woodbridge","name":"SaVida Health of Woodbridge","input_location":"4001 Prince William Pkwy, Suite 300, Woodbridge, VA 22192","latitude":"38.66531693314451","state":"VA","center_of_population":"false","longitude":"-77.3317037324103","output_zip":"22192","output_location":"4001 Prince William Pkwy, Ste 300, Woodbridge, Virginia, 22192","address":"4001 Prince William Pkwy, Suite 300"},"geometry":{"type":"Point","coordinates":[-77.3317037324103,38.66531693314451]}},{"type":"Feature","properties":{"zip_code":"24013","facility_type":"Office Based Opioid Treatment","city":"Roanoke","name":"Carilion Medical Center","input_location":"101 Elm Ave SE, Roanoke, VA 24013","latitude":"37.266011","state":"VA","center_of_population":"false","longitude":"-79.93945203","output_zip":"24013","output_location":"101 Elm Ave SE, Roanoke, Virginia, 24013","address":"101 Elm Ave SE"},"geometry":{"type":"Point","coordinates":[-79.93945203,37.266011]}},{"type":"Feature","properties":{"zip_code":"24244","facility_type":"Office Based Opioid Treatment","city":"Duffield","name":"SaVida Health","input_location":"373 Cecil D. Quillen Drive, Duffield, VA 24244","latitude":"36.71565000280535","state":"VA","center_of_population":"false","longitude":"-82.81490900684842","output_zip":"24244","output_location":"373 Cecil D Quillen Dr, Duffield, Virginia, 24244","address":"373 Cecil D. Quillen Drive"},"geometry":{"type":"Point","coordinates":[-82.81490900684842,36.71565000280535]}},{"type":"Feature","properties":{"zip_code":"22046","facility_type":"Office Based Opioid Treatment","city":"Falls Church","name":"Kaiser Foundation Health Plan","input_location":"201 N. Washington St, Falls Church, VA 22046","latitude":"38.88394601125455","state":"VA","center_of_population":"false","longitude":"-77.17010499777743","output_zip":"22046","output_location":"201 N Washington St, Falls Church, Virginia, 22046","address":"201 N. Washington St"},"geometry":{"type":"Point","coordinates":[-77.17010499777743,38.88394601125455]}},{"type":"Feature","properties":{"zip_code":"23320","facility_type":"Office Based Opioid Treatment","city":"Chesapeake","name":"Right Path Treatment Centers","input_location":"516 Innovation Dr. Suite 102, Chesapeake, VA 23320","latitude":"36.73564000368846","state":"VA","center_of_population":"false","longitude":"-76.22000898058526","output_zip":"23320","output_location":"516 Innovation Dr, Ste 102, Chesapeake, Virginia, 23320","address":"516 Innovation Dr. Suite 102"},"geometry":{"type":"Point","coordinates":[-76.22000898058526,36.73564000368846]}},{"type":"Feature","properties":{"zip_code":"23851","facility_type":"Office Based Opioid Treatment","city":"Franklin","name":"Western Tidewater CSB","input_location":"200 E. 2nd Avenue, Franklin, VA 23851","latitude":"36.678482","state":"VA","center_of_population":"false","longitude":"-76.92202497","output_zip":"23851","output_location":"200 E 2nd Ave, Franklin, Virginia, 23851","address":"200 E. 2nd Avenue"},"geometry":{"type":"Point","coordinates":[-76.92202497,36.678482]}},{"type":"Feature","properties":{"zip_code":"22903","facility_type":"Office Based Opioid Treatment","city":"Charlottesville","name":"UVA Clinic","input_location":"1300 Jefferson Park Avenue, Charlottesville, VA 22903","latitude":"38.03324100935518","state":"VA","center_of_population":"false","longitude":"-78.50101702776784","output_zip":"22903","output_location":"1300 Jefferson Park Ave, Charlottesville, Virginia, 22903","address":"1300 Jefferson Park Avenue"},"geometry":{"type":"Point","coordinates":[-78.50101702776784,38.03324100935518]}},{"type":"Feature","properties":{"zip_code":"22502","facility_type":"Office Based Opioid Treatment","city":"Winchester","name":"Starting Point of Virginia","input_location":"500 Pegasus Court, Winchester, VA 22502","latitude":"39.14458300878508","state":"VA","center_of_population":"false","longitude":"-78.15031803126928","output_zip":"22602","output_location":"500 Pegasus Ct, Winchester, Virginia, 22602","address":"500 Pegasus Court"},"geometry":{"type":"Point","coordinates":[-78.15031803126928,39.14458300878508]}},{"type":"Feature","properties":{"zip_code":"22601","facility_type":"Office Based Opioid Treatment","city":"Winchester","name":"Winchester Comm. Mental Health Ctr","input_location":"36 Ricketts Dr, Winchester, VA 22601","latitude":"39.16540399","state":"VA","center_of_population":"false","longitude":"-78.17427401","output_zip":"22601","output_location":"36 Ricketts Dr, Winchester, Virginia, 22601","address":"36 Ricketts Dr"},"geometry":{"type":"Point","coordinates":[-78.17427401,39.16540399]}},{"type":"Feature","properties":{"zip_code":"24151","facility_type":"Office Based Opioid Treatment","city":"Rocky Mount","name":"Piedmont Regional CSB","input_location":"30 Technology Dr, Rocky Mount , VA 24151","latitude":"37.01544000162531","state":"VA","center_of_population":"false","longitude":"-79.89286901424308","output_zip":"24151","output_location":"30 Technology Dr, Rocky Mount, Virginia, 24151","address":"30 Technology Dr"},"geometry":{"type":"Point","coordinates":[-79.89286901424308,37.01544000162531]}},{"type":"Feature","properties":{"zip_code":"22601","facility_type":"Office Based Opioid Treatment","city":"Winchester","name":"Northwestern CSB*","input_location":"158 Front Royal Rd., Suite 200, Winchester, VA 22601","latitude":"39.16016500869773","state":"VA","center_of_population":"false","longitude":"-78.15671602178212","output_zip":"22602","output_location":"158 Front Royal Pike, Ste 200, Winchester, Virginia, 22602","address":"158 Front Royal Rd., Suite 200"},"geometry":{"type":"Point","coordinates":[-78.15671602178212,39.16016500869773]}},{"type":"Feature","properties":{"zip_code":"22902","facility_type":"Office Based Opioid Treatment","city":"Charlottesville","name":"Center for Wellness and Change","input_location":"1007 East High St, Charlottesville, VA 22902","latitude":"38.03198598699271","state":"VA","center_of_population":"false","longitude":"-78.4703270245671","output_zip":"22902","output_location":"1007 E High St, Charlottesville, Virginia, 22902","address":"1007 East High St"},"geometry":{"type":"Point","coordinates":[-78.4703270245671,38.03198598699271]}},{"type":"Feature","properties":{"zip_code":"23320","facility_type":"Office Based Opioid Treatment","city":"Chesapeake","name":"Chesapeake Integrated Behavioral Healthcare CSB","input_location":"224 Great Bridge Blvd, Chesapeake, VA 23320","latitude":"36.735574","state":"VA","center_of_population":"false","longitude":"-76.24686401","output_zip":"23320","output_location":"224 Great Bridge Blvd, Chesapeake, Virginia, 23320","address":"224 Great Bridge Blvd"},"geometry":{"type":"Point","coordinates":[-76.24686401,36.735574]}},{"type":"Feature","properties":{"zip_code":"24614","facility_type":"Office Based Opioid Treatment","city":"Grundy","name":"Cumberland Mountain CSB","input_location":"1014 Stillhouse Hollow Rd, Grundy, VA 24614","latitude":"37.29607299","state":"VA","center_of_population":"false","longitude":"-82.05618902","output_zip":"24614","output_location":"1014 Stillhouse Hollow Rd, Grundy, Virginia, 24614","address":"1014 Stillhouse Hollow Rd"},"geometry":{"type":"Point","coordinates":[-82.05618902,37.29607299]}},{"type":"Feature","properties":{"zip_code":"23606","facility_type":"Office Based Opioid Treatment","city":"Newport News","name":"Available Mental Health Services","input_location":"12388 Warwick Blvd., Suite 303, Newport News, VA 23606","latitude":"37.067485","state":"VA","center_of_population":"false","longitude":"-76.491688","output_zip":"23606","output_location":"12388 Warwick Blvd, Ste 303, Newport News, Virginia, 23606","address":"12388 Warwick Blvd., Suite 303"},"geometry":{"type":"Point","coordinates":[-76.491688,37.067485]}},{"type":"Feature","properties":{"zip_code":"23188","facility_type":"Office Based Opioid Treatment","city":"Williamsburg","name":"Addiction Recovery Center of VA","input_location":"5000 New Point Road., Suite 3201, Williamsburg, VA 23188","latitude":"37.30948198","state":"VA","center_of_population":"false","longitude":"-76.752476","output_zip":"23188","output_location":"5000 New Point Rd, Ste 3201, Williamsburg, Virginia, 23188","address":"5000 New Point Road., Suite 3201"},"geometry":{"type":"Point","coordinates":[-76.752476,37.30948198]}},{"type":"Feature","properties":{"zip_code":"23224","facility_type":"Office Based Opioid Treatment","city":"Richmond","name":"CleanSlate Medical Group","input_location":"101 Cowardin Avenue, Richmond, VA 23224","latitude":"37.5196479808165","state":"VA","center_of_population":"false","longitude":"-77.44896102577866","output_zip":"23224","output_location":"101 Cowardin Ave, Richmond, Virginia, 23224","address":"101 Cowardin Avenue"},"geometry":{"type":"Point","coordinates":[-77.44896102577866,37.5196479808165]}},{"type":"Feature","properties":{"zip_code":"24503","facility_type":"Office Based Opioid Treatment","city":"Lynchburg","name":"Centra Medical Grp \u0096 Ctr. for Addiction in Medicine","input_location":"1330 Oak Lane, Suite 202, Lynchburg, VA 24503","latitude":"37.43708502","state":"VA","center_of_population":"false","longitude":"-79.188447","output_zip":"24503","output_location":"1330 Oak Ln, Ste 202, Lynchburg, Virginia, 24503","address":"1330 Oak Lane, Suite 202"},"geometry":{"type":"Point","coordinates":[-79.188447,37.43708502]}},{"type":"Feature","properties":{"zip_code":"24012","facility_type":"Office Based Opioid Treatment","city":"Roanoke","name":"Intercept Youth Services","input_location":"5673 Airport Rd, Roanoke, VA 24012","latitude":"37.32382401","state":"VA","center_of_population":"false","longitude":"-79.96100098","output_zip":"24012","output_location":"5673 Airport Rd, Roanoke, Virginia, 24012","address":"5673 Airport Rd"},"geometry":{"type":"Point","coordinates":[-79.96100098,37.32382401]}},{"type":"Feature","properties":{"zip_code":"23462","facility_type":"Office Based Opioid Treatment","city":"Virginia Beach","name":"Right Path Treatment Centers","input_location":"101 N. Lynnhaven Rd., Suite 100, Virginia Beach, VA 23462","latitude":"36.83952799385392","state":"VA","center_of_population":"false","longitude":"-76.06918099153283","output_zip":"23452","output_location":"101 N Lynnhaven Rd, Ste 100, Virginia Beach, Virginia, 23452","address":"101 N. Lynnhaven Rd., Suite 100"},"geometry":{"type":"Point","coordinates":[-76.06918099153283,36.83952799385392]}},{"type":"Feature","properties":{"zip_code":"24260","facility_type":"Office Based Opioid Treatment","city":"Clintwood","name":"SaVida Health","input_location":"132 McClure Avenue, Clintwood, VA 24260","latitude":"37.14953800530617","state":"VA","center_of_population":"false","longitude":"-82.45635901692154","output_zip":"24228","output_location":"132 McClure Ave, Clintwood, Virginia, 24228","address":"132 McClure Avenue"},"geometry":{"type":"Point","coordinates":[-82.45635901692154,37.14953800530617]}},{"type":"Feature","properties":{"zip_code":"24091","facility_type":"Office Based Opioid Treatment","city":"South Floyd","name":"NRV CSB","input_location":"274 Floyd Highway, South Floyd, VA 24091","latitude":"36.90932599","state":"VA","center_of_population":"false","longitude":"-80.33094298","output_zip":"24091","output_location":"274 Floyd Hwy S, Floyd, Virginia, 24091","address":"274 Floyd Highway"},"geometry":{"type":"Point","coordinates":[-80.33094298,36.90932599]}},{"type":"Feature","properties":{"zip_code":"24426","facility_type":"Office Based Opioid Treatment","city":"Covington","name":"Alleghany Highlands CSB","input_location":"311 South Monroe Ave, Covington, VA 24426","latitude":"37.78922734529599","state":"VA","center_of_population":"false","longitude":"-79.98992999228437","output_zip":"24426","output_location":"311 S Monroe Ave, Covington, Virginia, 24426","address":"311 South Monroe Ave"},"geometry":{"type":"Point","coordinates":[-79.98992999228437,37.78922734529599]}},{"type":"Feature","properties":{"zip_code":"22601","facility_type":"Office Based Opioid Treatment","city":"Winchester","name":"Winchester Recovery, LLC","input_location":"117 West Boscawen St Suite 206, Winchester, VA 22601","latitude":"39.184346","state":"VA","center_of_population":"false","longitude":"-78.16777603","output_zip":"22601","output_location":"117 W Boscawen St, Ste 206, Winchester, Virginia, 22601","address":"117 West Boscawen St Suite 206"},"geometry":{"type":"Point","coordinates":[-78.16777603,39.184346]}},{"type":"Feature","properties":{"zip_code":"24256","facility_type":"Office Based Opioid Treatment","city":"Haysi","name":"Hopkins Medical Association","input_location":"24743 Dickenson Highway, Haysi, VA 24256","latitude":"37.21244109260151","state":"VA","center_of_population":"false","longitude":"-82.2806424319417","output_zip":"24256","output_location":"24743 Dickenson Hwy, Haysi, Virginia, 24256","address":"24743 Dickenson Highway"},"geometry":{"type":"Point","coordinates":[-82.2806424319417,37.21244109260151]}},{"type":"Feature","properties":{"zip_code":"23220","facility_type":"Office Based Opioid Treatment","city":"Richmond","name":"Center for Internal Medicine","input_location":"110 N. Robinson St., Suite 305, Richmond, VA 23220","latitude":"37.55345999149301","state":"VA","center_of_population":"false","longitude":"-77.47315698185616","output_zip":"23220","output_location":"110 N Robinson St, Ste 305, Richmond, Virginia, 23220","address":"110 N. Robinson St., Suite 305"},"geometry":{"type":"Point","coordinates":[-77.47315698185616,37.55345999149301]}},{"type":"Feature","properties":{"zip_code":"22031","facility_type":"Office Based Opioid Treatment","city":"Fairfax","name":"INOVA Comprehensive Addiction Treatment","input_location":"8221 Willow Oaks Corporate Dr, Suite 4-425    , Fairfax, VA 22031","latitude":"38.86367601289584","state":"VA","center_of_population":"false","longitude":"-77.23383596038158","output_zip":"22031","output_location":"8221 Willow Oaks Corporate Dr, Fairfax, Virginia, 22031","address":"8221 Willow Oaks Corporate Dr, Suite 4-425"},"geometry":{"type":"Point","coordinates":[-77.23383596038158,38.86367601289584]}},{"type":"Feature","properties":{"zip_code":"24141","facility_type":"Office Based Opioid Treatment","city":"Radford","name":"Carilion Medical Center- St. Albans","input_location":"2900 Lamb Circle , Radford, VA 24141","latitude":"37.08866502","state":"VA","center_of_population":"false","longitude":"-80.50535698","output_zip":"24073","output_location":"2900 Lamb Cir, Christiansburg, Virginia, 24073","address":"2900 Lamb Circle"},"geometry":{"type":"Point","coordinates":[-80.50535698,37.08866502]}},{"type":"Feature","properties":{"zip_code":"22192","facility_type":"Office Based Opioid Treatment","city":"Woodbridge","name":"SaVida Health of Woodbridge","input_location":"4001 Prince William Pkwy, Suite 300, Woodbridge, VA 22192","latitude":"38.66531693","state":"VA","center_of_population":"false","longitude":"-77.33170373","output_zip":"22192","output_location":"4001 Prince William Pkwy, Ste 300, Woodbridge, Virginia, 22192","address":"4001 Prince William Pkwy, Suite 300"},"geometry":{"type":"Point","coordinates":[-77.33170373,38.66531693]}},{"type":"Feature","properties":{"zip_code":"22601","facility_type":"Office Based Opioid Treatment","city":"Winchester","name":"Integrated Medical Services","input_location":"1001 Berryville Ave, Winchester, VA 22601","latitude":"39.18518800716157","state":"VA","center_of_population":"false","longitude":"-78.1429710416789","output_zip":"22601","output_location":"1001 Berryville Ave, Winchester, Virginia, 22601","address":"1001 Berryville Ave"},"geometry":{"type":"Point","coordinates":[-78.1429710416789,39.18518800716157]}},{"type":"Feature","properties":{"zip_code":"23505","facility_type":"Office Based Opioid Treatment","city":"Norfolk","name":"The City of Norfolk CSB","input_location":"7460 Tidewater Drive, Norfolk, VA 23505","latitude":"36.91077098572197","state":"VA","center_of_population":"false","longitude":"-76.25539301720234","output_zip":"23505","output_location":"7460 Tidewater Dr, Norfolk, Virginia, 23505","address":"7460 Tidewater Drive"},"geometry":{"type":"Point","coordinates":[-76.25539301720234,36.91077098572197]}},{"type":"Feature","properties":{"zip_code":"23235","facility_type":"Office Based Opioid Treatment","city":"Chesterfield","name":"Family Guidance of Virginia","input_location":"8014 Midlothian Turnpike, Suite 202, Chesterfield, VA 23235","latitude":"37.49873601","state":"VA","center_of_population":"false","longitude":"-77.54449796","output_zip":"23235","output_location":"8014 Midlothian Tpke, Ste 202, Richmond, Virginia, 23235","address":"8014 Midlothian Turnpike, Suite 202"},"geometry":{"type":"Point","coordinates":[-77.54449796,37.49873601]}},{"type":"Feature","properties":{"zip_code":"24017","facility_type":"Office Based Opioid Treatment","city":"Roanoke","name":"New Horizons Healthcare","input_location":"3716 Melrose Avenue, NW, Roanoke, VA 24017","latitude":"37.29365699332844","state":"VA","center_of_population":"false","longitude":"-79.99794798903072","output_zip":"24017","output_location":"3716 Melrose Ave NW, Roanoke, Virginia, 24017","address":"3716 Melrose Avenue, NW"},"geometry":{"type":"Point","coordinates":[-79.99794798903072,37.29365699332844]}},{"type":"Feature","properties":{"zip_code":"24370","facility_type":"Office Based Opioid Treatment","city":"Saltville","name":"Southwest Va Community Health System (New Day Recovery) FQHC","input_location":"319 5th Ave, Saltville, VA 24370","latitude":"36.880968","state":"VA","center_of_population":"false","longitude":"-81.75708198","output_zip":"24370","output_location":"319 5th Ave, Saltville, Virginia, 24370","address":"319 5th Ave"},"geometry":{"type":"Point","coordinates":[-81.75708198,36.880968]}},{"type":"Feature","properties":{"zip_code":"24201","facility_type":"Office Based Opioid Treatment","city":"Bristol","name":"East Tennessee Recovery","input_location":"329 Bonham Road, Bristol, VA 24201","latitude":"36.62332698545573","state":"VA","center_of_population":"false","longitude":"-82.12999796594028","output_zip":"24201","output_location":"329 Bonham Rd, Bristol, Virginia, 24201","address":"329 Bonham Road"},"geometry":{"type":"Point","coordinates":[-82.12999796594028,36.62332698545573]}},{"type":"Feature","properties":{"zip_code":"24091","facility_type":"Office Based Opioid Treatment","city":"South Floyd","name":"NRV CSB","input_location":"274 Floyd Highway, South Floyd, VA 24091","latitude":"36.90932598752404","state":"VA","center_of_population":"false","longitude":"-80.33094298109921","output_zip":"24091","output_location":"274 Floyd Hwy S, Floyd, Virginia, 24091","address":"274 Floyd Highway"},"geometry":{"type":"Point","coordinates":[-80.33094298109921,36.90932598752404]}},{"type":"Feature","properties":{"zip_code":"24609","facility_type":"Office Based Opioid Treatment","city":"Cedar Bluff","name":"SaVida Health of Claypool Hill","input_location":"4003 Steelsburg Hwy, Cedar Bluff, VA 24609","latitude":"37.05718301","state":"VA","center_of_population":"false","longitude":"-81.76486902","output_zip":"24609","output_location":"4003 Steelsburg Hwy, Cedar Bluff, Virginia, 24609","address":"4003 Steelsburg Hwy"},"geometry":{"type":"Point","coordinates":[-81.76486902,37.05718301]}},{"type":"Feature","properties":{"zip_code":"23235","facility_type":"Office Based Opioid Treatment","city":"Chesterfield","name":"Family Guidance of Virginia","input_location":"8014 Midlothian Turnpike, Suite 202, Chesterfield, VA 23235","latitude":"37.49873601249361","state":"VA","center_of_population":"false","longitude":"-77.54449795817234","output_zip":"23235","output_location":"8014 Midlothian Tpke, Ste 202, Richmond, Virginia, 23235","address":"8014 Midlothian Turnpike, Suite 202"},"geometry":{"type":"Point","coordinates":[-77.54449795817234,37.49873601249361]}},{"type":"Feature","properties":{"zip_code":"23707","facility_type":"Office Based Opioid Treatment","city":"Portsmouth","name":"Sobriety and Suboxone Holistic Services","input_location":"3412 Columbia St, Portsmouth, VA 23707","latitude":"36.8321970136986","state":"VA","center_of_population":"false","longitude":"-76.34405402296412","output_zip":"23707","output_location":"3412 Columbia St, Portsmouth, Virginia, 23707","address":"3412 Columbia St"},"geometry":{"type":"Point","coordinates":[-76.34405402296412,36.8321970136986]}},{"type":"Feature","properties":{"zip_code":"24817","facility_type":"Office Based Opioid Treatment","city":"Bradshaw","name":"Hopkins Medical Association","input_location":"1616 Mountaineer Highway, Bradshaw, WV 24817","latitude":"37.37015405","state":"WV","center_of_population":"false","longitude":"-81.79917782","output_zip":"24873","output_location":"1616 Mountaineer Hwy, Paynesville, West Virginia, 24873","address":"1616 Mountaineer Highway"},"geometry":{"type":"Point","coordinates":[-81.79917782,37.37015405]}},{"type":"Feature","properties":{"zip_code":"24540","facility_type":"Office Based Opioid Treatment","city":"Danville","name":"Epic Health Partners","input_location":"157 Deer Run Road, Danville, VA 24540","latitude":"36.61342402","state":"VA","center_of_population":"false","longitude":"-79.40819804","output_zip":"24540","output_location":"157 Deer Run Rd, Danville, Virginia, 24540","address":"157 Deer Run Road"},"geometry":{"type":"Point","coordinates":[-79.40819804,36.61342402]}},{"type":"Feature","properties":{"zip_code":"24202","facility_type":"Office Based Opioid Treatment","city":"Bristol","name":"Renaissance Medical Care","input_location":"284 Blevins Blvd, Bristol, VA 24202","latitude":"36.63037399","state":"VA","center_of_population":"false","longitude":"-82.15039399","output_zip":"24202","output_location":"284 Blevins Blvd, Bristol, Virginia, 24202","address":"284 Blevins Blvd"},"geometry":{"type":"Point","coordinates":[-82.15039399,36.63037399]}},{"type":"Feature","properties":{"zip_code":"23462","facility_type":"Office Based Opioid Treatment","city":"Virginia Beach","name":"Meridian Psychotherapy","input_location":"4509 Whitechapel Dr, Virginia Beach, VA 23462","latitude":"36.86138594850961","state":"VA","center_of_population":"false","longitude":"-76.13013155998037","output_zip":"23455","output_location":"4509 Whitechapel Dr, Virginia Beach, Virginia, 23455","address":"4509 Whitechapel Dr"},"geometry":{"type":"Point","coordinates":[-76.13013155998037,36.86138594850961]}},{"type":"Feature","properties":{"zip_code":"23462","facility_type":"Office Based Opioid Treatment","city":"Virginia Beach","name":"Meridian Psychotherapy","input_location":"4509 Whitechapel Dr, Virginia Beach, VA 23462","latitude":"36.86138595","state":"VA","center_of_population":"false","longitude":"-76.13013156","output_zip":"23455","output_location":"4509 Whitechapel Dr, Virginia Beach, Virginia, 23455","address":"4509 Whitechapel Dr"},"geometry":{"type":"Point","coordinates":[-76.13013156,36.86138595]}},{"type":"Feature","properties":{"zip_code":"22701","facility_type":"Office Based Opioid Treatment","city":"Culpepper","name":"Rappahannock-Rapidan CSB*","input_location":"Culpeper Clinic - 650 Laurel Street, Culpepper, VA 22701","latitude":"38.45583900737381","state":"VA","center_of_population":"false","longitude":"-78.01464402024385","output_zip":"22701","output_location":"650 Laurel St, Culpeper, Virginia, 22701","address":"Culpeper Clinic - 650 Laurel Street"},"geometry":{"type":"Point","coordinates":[-78.01464402024385,38.45583900737381]}},{"type":"Feature","properties":{"zip_code":"24018","facility_type":"Office Based Opioid Treatment","city":"Roanoke","name":"Anderson and Associates","input_location":"4212 Cypress Park Dr, Roanoke, VA 24018","latitude":"37.22644498","state":"VA","center_of_population":"false","longitude":"-79.97900204","output_zip":"24018","output_location":"4212 Cypress Park Dr, Roanoke, Virginia, 24018","address":"4212 Cypress Park Dr"},"geometry":{"type":"Point","coordinates":[-79.97900204,37.22644498]}},{"type":"Feature","properties":{"zip_code":"22701","facility_type":"Office Based Opioid Treatment","city":"Culpepper","name":"Rappahannock-Rapidan CSB*","input_location":"Culpeper Clinic - 650 Laurel Street, Culpepper, VA 22701","latitude":"38.45583901","state":"VA","center_of_population":"false","longitude":"-78.01464402","output_zip":"22701","output_location":"650 Laurel St, Culpeper, Virginia, 22701","address":"Culpeper Clinic - 650 Laurel Street"},"geometry":{"type":"Point","coordinates":[-78.01464402,38.45583901]}},{"type":"Feature","properties":{"zip_code":"24370","facility_type":"Office Based Opioid Treatment","city":"Saltville","name":"Southwest Va Community Health System (New Day Recovery) FQHC","input_location":"319 5th Ave, Saltville, VA 24370","latitude":"36.88096799742476","state":"VA","center_of_population":"false","longitude":"-81.7570819807039","output_zip":"24370","output_location":"319 5th Ave, Saltville, Virginia, 24370","address":"319 5th Ave"},"geometry":{"type":"Point","coordinates":[-81.7570819807039,36.88096799742476]}},{"type":"Feature","properties":{"zip_code":"20186","facility_type":"Office Based Opioid Treatment","city":"Warrenton","name":"Rappahannock-Rapidan CSB*","input_location":"Fauquier Clinic - 340 Hospital Drive, Warrenton, VA 20186","latitude":"38.71476002","state":"VA","center_of_population":"false","longitude":"-77.80951496","output_zip":"20186","output_location":"340 Hospital Dr, Warrenton, Virginia, 20186","address":"Fauquier Clinic - 340 Hospital Drive"},"geometry":{"type":"Point","coordinates":[-77.80951496,38.71476002]}},{"type":"Feature","properties":{"zip_code":"23060","facility_type":"Office Based Opioid Treatment","city":"Glen Allen","name":"Henrico Area MH and Developmental Services CSB","input_location":"10299 Woodman Rd, Glen Allen, VA 23060","latitude":"37.65386601","state":"VA","center_of_population":"false","longitude":"-77.49354898","output_zip":"23060","output_location":"10299 Woodman Rd, Glen Allen, Virginia, 23060","address":"10299 Woodman Rd"},"geometry":{"type":"Point","coordinates":[-77.49354898,37.65386601]}},{"type":"Feature","properties":{"zip_code":"24637","facility_type":"Office Based Opioid Treatment","city":"Pounding Mill","name":"Starting Point of Virginia","input_location":"12850 Gov G C Perry Highway, Pounding Mill, VA 24637","latitude":"37.06535201383072","state":"VA","center_of_population":"false","longitude":"-81.73740596591374","output_zip":"24637","output_location":"12850 Governor G C Peery Hwy, Pounding Mill, Virginia, 24637","address":"12850 Gov G C Perry Highway"},"geometry":{"type":"Point","coordinates":[-81.73740596591374,37.06535201383072]}},{"type":"Feature","properties":{"zip_code":"24273","facility_type":"Office Based Opioid Treatment","city":"Norton","name":"Spero Health of Virginia, LLC","input_location":"338 Coeburn Ave SE Suite 336, Norton, VA 24273","latitude":"36.93572061","state":"VA","center_of_population":"false","longitude":"-82.6218756","output_zip":"24273","output_location":"338 Coeburn Rd, Norton, Virginia, 24273","address":"338 Coeburn Ave SE Suite 336"},"geometry":{"type":"Point","coordinates":[-82.6218756,36.93572061]}},{"type":"Feature","properties":{"zip_code":"23707","facility_type":"Office Based Opioid Treatment","city":"Portsmouth","name":"Sobriety and Suboxone Holistic Services","input_location":"3412 Columbia St, Portsmouth, VA 23707","latitude":"36.83219701","state":"VA","center_of_population":"false","longitude":"-76.34405402","output_zip":"23707","output_location":"3412 Columbia St, Portsmouth, Virginia, 23707","address":"3412 Columbia St"},"geometry":{"type":"Point","coordinates":[-76.34405402,36.83219701]}},{"type":"Feature","properties":{"zip_code":"23462","facility_type":"Office Based Opioid Treatment","city":"Virginia Beach","name":"Human Services Dept, City of VA Beach CSB","input_location":"3134 Magic Hollow Blvd., Suite 200, Virginia Beach, VA 23462","latitude":"36.80476733242218","state":"VA","center_of_population":"false","longitude":"-76.07771778322982","output_zip":"23453","output_location":"3134 Magic Hollow Blvd, Virginia Beach, Virginia, 23453","address":"3134 Magic Hollow Blvd., Suite 200"},"geometry":{"type":"Point","coordinates":[-76.07771778322982,36.80476733242218]}},{"type":"Feature","properties":{"zip_code":"24201","facility_type":"Office Based Opioid Treatment","city":"Bristol","name":"Highlands CSB*","input_location":"1969 Lee Highway, Suite U-3, Bristol, VA 24201","latitude":"36.622985","state":"VA","center_of_population":"false","longitude":"-82.16121502","output_zip":"24201","output_location":"1969 Lee Hwy, Ste U, Bristol, Virginia, 24201","address":"1969 Lee Highway, Suite U-3"},"geometry":{"type":"Point","coordinates":[-82.16121502,36.622985]}},{"type":"Feature","properties":{"zip_code":"24266","facility_type":"Office Based Opioid Treatment","city":"Lebanon","name":"Highpower","input_location":"2003 E. Main St, Lebanon, VA 24266","latitude":"36.90815298","state":"VA","center_of_population":"false","longitude":"-82.04537796","output_zip":"24266","output_location":"2003 E Main St, Lebanon, Virginia, 24266","address":"2003 E. Main St"},"geometry":{"type":"Point","coordinates":[-82.04537796,36.90815298]}},{"type":"Feature","properties":{"zip_code":"22124","facility_type":"Office Based Opioid Treatment","city":"Oakton","name":"Oakton Urgent Care","input_location":"2915 Hunter Mill Rd., Suite 11, Oakton, VA 22124","latitude":"38.882291","state":"VA","center_of_population":"false","longitude":"-77.30050998","output_zip":"22124","output_location":"2915 Hunter Mill Rd, Ste 11, Oakton, Virginia, 22124","address":"2915 Hunter Mill Rd., Suite 11"},"geometry":{"type":"Point","coordinates":[-77.30050998,38.882291]}},{"type":"Feature","properties":{"zip_code":"22601","facility_type":"Office Based Opioid Treatment","city":"Winchester","name":"Northwestern CSB*","input_location":"158 Front Royal Rd., Suite 200, Winchester, VA 22601","latitude":"39.16016501","state":"VA","center_of_population":"false","longitude":"-78.15671602","output_zip":"22602","output_location":"158 Front Royal Pike, Ste 200, Winchester, Virginia, 22602","address":"158 Front Royal Rd., Suite 200"},"geometry":{"type":"Point","coordinates":[-78.15671602,39.16016501]}}]
}